{
  "type": "FeatureCollection",
  "name": "crops1",
  "crs": {
    "type": "name",
    "properties": { "name": "urn:ogc:def:crs:OGC:1.3:CRS84" }
  },
  "features": [
    {
      "type": "Feature",
      "properties": {
        "name_of_ci": "Port Blair",
        "state_code": 35,
        "state_name": "ANDAMAN & NICOBAR ISLANDS",
        "lat": 92.7264828,
        "long": 11.6233774,
        "types_of_c": "Island Purslane",
        "farm sizea": 72,
        "area of cr": 62
      },
      "geometry": { "type": "Point", "coordinates": [92.7264828, 11.6233774] }
    },
    {
      "type": "Feature",
      "properties": {
        "name_of_ci": "Adilabad",
        "state_code": 28,
        "state_name": "ANDHRA PRADESH",
        "lat": 79.560344,
        "long": 19.0809075,
        "types_of_c": "Navel Lichen",
        "farm sizea": 76,
        "area of cr": 28
      },
      "geometry": { "type": "Point", "coordinates": [79.560344, 19.0809075] }
    },
    {
      "type": "Feature",
      "properties": {
        "name_of_ci": "Adoni",
        "state_code": 28,
        "state_name": "ANDHRA PRADESH",
        "lat": 77.2728368,
        "long": 15.6322227,
        "types_of_c": "Muir's Raillardiopsis",
        "farm sizea": 79,
        "area of cr": 10
      },
      "geometry": { "type": "Point", "coordinates": [77.2728368, 15.6322227] }
    },
    {
      "type": "Feature",
      "properties": {
        "name_of_ci": "Anantapur",
        "state_code": 28,
        "state_name": "ANDHRA PRADESH",
        "lat": 77.6005911,
        "long": 14.6818877,
        "types_of_c": "Chia",
        "farm sizea": 79,
        "area of cr": 34
      },
      "geometry": { "type": "Point", "coordinates": [77.6005911, 14.6818877] }
    },
    {
      "type": "Feature",
      "properties": {
        "name_of_ci": "Bhimavaram",
        "state_code": 28,
        "state_name": "ANDHRA PRADESH",
        "lat": 81.521241,
        "long": 16.544893,
        "types_of_c": "Freckled Milkvetch",
        "farm sizea": 69,
        "area of cr": 47
      },
      "geometry": { "type": "Point", "coordinates": [81.521241, 16.544893] }
    },
    {
      "type": "Feature",
      "properties": {
        "name_of_ci": "Chilakaluripet",
        "state_code": 28,
        "state_name": "ANDHRA PRADESH",
        "lat": 80.1623948,
        "long": 16.0924301,
        "types_of_c": "Hybrid Oak",
        "farm sizea": 79,
        "area of cr": 15
      },
      "geometry": { "type": "Point", "coordinates": [80.1623948, 16.0924301] }
    },
    {
      "type": "Feature",
      "properties": {
        "name_of_ci": "Chittoor",
        "state_code": 28,
        "state_name": "ANDHRA PRADESH",
        "lat": 79.1010442,
        "long": 13.2218054,
        "types_of_c": "Birdnest Milkvetch",
        "farm sizea": 82,
        "area of cr": 28
      },
      "geometry": { "type": "Point", "coordinates": [79.1010442, 13.2218054] }
    },
    {
      "type": "Feature",
      "properties": {
        "name_of_ci": "Dharmavaram",
        "state_code": 28,
        "state_name": "ANDHRA PRADESH",
        "lat": 77.7126189,
        "long": 14.4137447,
        "types_of_c": "Jaguey",
        "farm sizea": 76,
        "area of cr": 61
      },
      "geometry": { "type": "Point", "coordinates": [77.7126189, 14.4137447] }
    },
    {
      "type": "Feature",
      "properties": {
        "name_of_ci": "Eluru",
        "state_code": 28,
        "state_name": "ANDHRA PRADESH",
        "lat": 81.0952431,
        "long": 16.7106604,
        "types_of_c": "Jones' Selenia",
        "farm sizea": 78,
        "area of cr": 44
      },
      "geometry": { "type": "Point", "coordinates": [81.0952431, 16.7106604] }
    },
    {
      "type": "Feature",
      "properties": {
        "name_of_ci": "Greater Hyderabad",
        "state_code": 28,
        "state_name": "ANDHRA PRADESH",
        "lat": 78.4867,
        "long": 17.385,
        "types_of_c": "Nevada Pussypaws",
        "farm sizea": 86,
        "area of cr": 42
      },
      "geometry": { "type": "Point", "coordinates": [78.4867, 17.385] }
    },
    {
      "type": "Feature",
      "properties": {
        "name_of_ci": "Gudivada",
        "state_code": 28,
        "state_name": "ANDHRA PRADESH",
        "lat": 80.9926327,
        "long": 16.4410255,
        "types_of_c": "Sand Muhly",
        "farm sizea": 72,
        "area of cr": 34
      },
      "geometry": { "type": "Point", "coordinates": [80.9926327, 16.4410255] }
    },
    {
      "type": "Feature",
      "properties": {
        "name_of_ci": "Guntakal",
        "state_code": 28,
        "state_name": "ANDHRA PRADESH",
        "lat": 77.3736238,
        "long": 15.1674091,
        "types_of_c": "Blue Skin Lichen",
        "farm sizea": 79,
        "area of cr": 40
      },
      "geometry": { "type": "Point", "coordinates": [77.3736238, 15.1674091] }
    },
    {
      "type": "Feature",
      "properties": {
        "name_of_ci": "Guntur",
        "state_code": 28,
        "state_name": "ANDHRA PRADESH",
        "lat": 80.4365402,
        "long": 16.3066525,
        "types_of_c": "Santa Barbara Honeysuckle",
        "farm sizea": 74,
        "area of cr": 20
      },
      "geometry": { "type": "Point", "coordinates": [80.4365402, 16.3066525] }
    },
    {
      "type": "Feature",
      "properties": {
        "name_of_ci": "Hindupur",
        "state_code": 28,
        "state_name": "ANDHRA PRADESH",
        "lat": 77.4988753,
        "long": 13.8185378,
        "types_of_c": "Velvet Stickseed",
        "farm sizea": 65,
        "area of cr": 63
      },
      "geometry": { "type": "Point", "coordinates": [77.4988753, 13.8185378] }
    },
    {
      "type": "Feature",
      "properties": {
        "name_of_ci": "Kadapa",
        "state_code": 28,
        "state_name": "ANDHRA PRADESH",
        "lat": 78.8241339,
        "long": 14.4673541,
        "types_of_c": "Truckee Lewisia",
        "farm sizea": 78,
        "area of cr": 38
      },
      "geometry": { "type": "Point", "coordinates": [78.8241339, 14.4673541] }
    },
    {
      "type": "Feature",
      "properties": {
        "name_of_ci": "Kakinada",
        "state_code": 28,
        "state_name": "ANDHRA PRADESH",
        "lat": 82.2474648,
        "long": 16.9890648,
        "types_of_c": "Hilo Murainagrass",
        "farm sizea": 86,
        "area of cr": 61
      },
      "geometry": { "type": "Point", "coordinates": [82.2474648, 16.9890648] }
    },
    {
      "type": "Feature",
      "properties": {
        "name_of_ci": "Karimnagar",
        "state_code": 28,
        "state_name": "ANDHRA PRADESH",
        "lat": 79.1288412,
        "long": 18.4385553,
        "types_of_c": "Tussock Grass",
        "farm sizea": 90,
        "area of cr": 33
      },
      "geometry": { "type": "Point", "coordinates": [79.1288412, 18.4385553] }
    },
    {
      "type": "Feature",
      "properties": {
        "name_of_ci": "Khammam",
        "state_code": 28,
        "state_name": "ANDHRA PRADESH",
        "lat": 80.1514447,
        "long": 17.2472528,
        "types_of_c": "Lecidea Lichen",
        "farm sizea": 87,
        "area of cr": 65
      },
      "geometry": { "type": "Point", "coordinates": [80.1514447, 17.2472528] }
    },
    {
      "type": "Feature",
      "properties": {
        "name_of_ci": "Kurnool",
        "state_code": 28,
        "state_name": "ANDHRA PRADESH",
        "lat": 78.0372792,
        "long": 15.8281257,
        "types_of_c": "Sphagnum",
        "farm sizea": 85,
        "area of cr": 43
      },
      "geometry": { "type": "Point", "coordinates": [78.0372792, 15.8281257] }
    },
    {
      "type": "Feature",
      "properties": {
        "name_of_ci": "Machilipatnam",
        "state_code": 28,
        "state_name": "ANDHRA PRADESH",
        "lat": 81.1361543,
        "long": 16.1905457,
        "types_of_c": "Margarett's Myrcia",
        "farm sizea": 84,
        "area of cr": 64
      },
      "geometry": { "type": "Point", "coordinates": [81.1361543, 16.1905457] }
    },
    {
      "type": "Feature",
      "properties": {
        "name_of_ci": "Madanapalle",
        "state_code": 28,
        "state_name": "ANDHRA PRADESH",
        "lat": 78.5036065,
        "long": 13.5603491,
        "types_of_c": "Mouseear Hawkweed",
        "farm sizea": 78,
        "area of cr": 12
      },
      "geometry": { "type": "Point", "coordinates": [78.5036065, 13.5603491] }
    },
    {
      "type": "Feature",
      "properties": {
        "name_of_ci": "Mahbubnagar",
        "state_code": 28,
        "state_name": "ANDHRA PRADESH",
        "lat": 78.0081221,
        "long": 16.7375089,
        "types_of_c": "Black Mangrove",
        "farm sizea": 77,
        "area of cr": 10
      },
      "geometry": { "type": "Point", "coordinates": [78.0081221, 16.7375089] }
    },
    {
      "type": "Feature",
      "properties": {
        "name_of_ci": "Miryalaguda",
        "state_code": 28,
        "state_name": "ANDHRA PRADESH",
        "lat": 79.5659633,
        "long": 16.8753106,
        "types_of_c": "Oblongleaf Snakeherb",
        "farm sizea": 65,
        "area of cr": 36
      },
      "geometry": { "type": "Point", "coordinates": [79.5659633, 16.8753106] }
    },
    {
      "type": "Feature",
      "properties": {
        "name_of_ci": "Nalgonda",
        "state_code": 28,
        "state_name": "ANDHRA PRADESH",
        "lat": 79.2620294,
        "long": 17.0575707,
        "types_of_c": "Christmas Cactus",
        "farm sizea": 79,
        "area of cr": 14
      },
      "geometry": { "type": "Point", "coordinates": [79.2620294, 17.0575707] }
    },
    {
      "type": "Feature",
      "properties": {
        "name_of_ci": "Nandyal",
        "state_code": 28,
        "state_name": "ANDHRA PRADESH",
        "lat": 78.4830934,
        "long": 15.4785694,
        "types_of_c": "Udo",
        "farm sizea": 80,
        "area of cr": 28
      },
      "geometry": { "type": "Point", "coordinates": [78.4830934, 15.4785694] }
    },
    {
      "type": "Feature",
      "properties": {
        "name_of_ci": "Narasaraopet",
        "state_code": 28,
        "state_name": "ANDHRA PRADESH",
        "lat": 80.0479039,
        "long": 16.2353506,
        "types_of_c": "Wharton's Dewberry",
        "farm sizea": 90,
        "area of cr": 48
      },
      "geometry": { "type": "Point", "coordinates": [80.0479039, 16.2353506] }
    },
    {
      "type": "Feature",
      "properties": {
        "name_of_ci": "Nellore",
        "state_code": 28,
        "state_name": "ANDHRA PRADESH",
        "lat": 79.986456,
        "long": 14.4425987,
        "types_of_c": "Narrow-petal Rein Orchid",
        "farm sizea": 84,
        "area of cr": 52
      },
      "geometry": { "type": "Point", "coordinates": [79.986456, 14.4425987] }
    },
    {
      "type": "Feature",
      "properties": {
        "name_of_ci": "Nizamabad",
        "state_code": 28,
        "state_name": "ANDHRA PRADESH",
        "lat": 78.0940867,
        "long": 18.6725047,
        "types_of_c": "Cooper's Goldenbush",
        "farm sizea": 86,
        "area of cr": 25
      },
      "geometry": { "type": "Point", "coordinates": [78.0940867, 18.6725047] }
    },
    {
      "type": "Feature",
      "properties": {
        "name_of_ci": "Ongole",
        "state_code": 28,
        "state_name": "ANDHRA PRADESH",
        "lat": 80.049922,
        "long": 15.5057232,
        "types_of_c": "Hollyleaf Fringedfern",
        "farm sizea": 67,
        "area of cr": 15
      },
      "geometry": { "type": "Point", "coordinates": [80.049922, 15.5057232] }
    },
    {
      "type": "Feature",
      "properties": {
        "name_of_ci": "Proddatur",
        "state_code": 28,
        "state_name": "ANDHRA PRADESH",
        "lat": 78.5531577,
        "long": 14.7491864,
        "types_of_c": "Palaquium",
        "farm sizea": 85,
        "area of cr": 23
      },
      "geometry": { "type": "Point", "coordinates": [78.5531577, 14.7491864] }
    },
    {
      "type": "Feature",
      "properties": {
        "name_of_ci": "Rajahmundry",
        "state_code": 28,
        "state_name": "ANDHRA PRADESH",
        "lat": 81.8040345,
        "long": 17.0005383,
        "types_of_c": "Hog Plum",
        "farm sizea": 71,
        "area of cr": 29
      },
      "geometry": { "type": "Point", "coordinates": [81.8040345, 17.0005383] }
    },
    {
      "type": "Feature",
      "properties": {
        "name_of_ci": "Ramagundam",
        "state_code": 28,
        "state_name": "ANDHRA PRADESH",
        "lat": 79.4816378,
        "long": 18.7595503,
        "types_of_c": "Yuba Pass Willowherb",
        "farm sizea": 68,
        "area of cr": 51
      },
      "geometry": { "type": "Point", "coordinates": [79.4816378, 18.7595503] }
    },
    {
      "type": "Feature",
      "properties": {
        "name_of_ci": "Secunderabad",
        "state_code": 28,
        "state_name": "ANDHRA PRADESH",
        "lat": 78.4982741,
        "long": 17.4399295,
        "types_of_c": "Bonpland's Croton",
        "farm sizea": 69,
        "area of cr": 39
      },
      "geometry": { "type": "Point", "coordinates": [78.4982741, 17.4399295] }
    },
    {
      "type": "Feature",
      "properties": {
        "name_of_ci": "Srikakulam",
        "state_code": 28,
        "state_name": "ANDHRA PRADESH",
        "lat": 84.0167423,
        "long": 18.4285005,
        "types_of_c": "Florida Whitetop",
        "farm sizea": 66,
        "area of cr": 24
      },
      "geometry": { "type": "Point", "coordinates": [84.0167423, 18.4285005] }
    },
    {
      "type": "Feature",
      "properties": {
        "name_of_ci": "Suryapet",
        "state_code": 28,
        "state_name": "ANDHRA PRADESH",
        "lat": 79.6333674,
        "long": 17.1353148,
        "types_of_c": "Carolina Coralbead",
        "farm sizea": 89,
        "area of cr": 35
      },
      "geometry": { "type": "Point", "coordinates": [79.6333674, 17.1353148] }
    },
    {
      "type": "Feature",
      "properties": {
        "name_of_ci": "Tadepalligudem",
        "state_code": 28,
        "state_name": "ANDHRA PRADESH",
        "lat": 81.521241,
        "long": 16.8138415,
        "types_of_c": "Money Croton",
        "farm sizea": 73,
        "area of cr": 28
      },
      "geometry": { "type": "Point", "coordinates": [81.521241, 16.8138415] }
    },
    {
      "type": "Feature",
      "properties": {
        "name_of_ci": "Tadpatri",
        "state_code": 28,
        "state_name": "ANDHRA PRADESH",
        "lat": 78.0092703,
        "long": 14.9070274,
        "types_of_c": "New Mexico Xanthoparmelia Lichen",
        "farm sizea": 68,
        "area of cr": 22
      },
      "geometry": { "type": "Point", "coordinates": [78.0092703, 14.9070274] }
    },
    {
      "type": "Feature",
      "properties": {
        "name_of_ci": "Tenali",
        "state_code": 28,
        "state_name": "ANDHRA PRADESH",
        "lat": 80.6493396,
        "long": 16.2395313,
        "types_of_c": "Northern Jacob's-ladder",
        "farm sizea": 66,
        "area of cr": 28
      },
      "geometry": { "type": "Point", "coordinates": [80.6493396, 16.2395313] }
    },
    {
      "type": "Feature",
      "properties": {
        "name_of_ci": "Tirupati",
        "state_code": 28,
        "state_name": "ANDHRA PRADESH",
        "lat": 79.4191795,
        "long": 13.6287557,
        "types_of_c": "Rock Goldenrod",
        "farm sizea": 72,
        "area of cr": 20
      },
      "geometry": { "type": "Point", "coordinates": [79.4191795, 13.6287557] }
    },
    {
      "type": "Feature",
      "properties": {
        "name_of_ci": "Vijayawada",
        "state_code": 28,
        "state_name": "ANDHRA PRADESH",
        "lat": 80.6480153,
        "long": 16.5061743,
        "types_of_c": "Vateria",
        "farm sizea": 66,
        "area of cr": 52
      },
      "geometry": { "type": "Point", "coordinates": [80.6480153, 16.5061743] }
    },
    {
      "type": "Feature",
      "properties": {
        "name_of_ci": "Visakhapatnam",
        "state_code": 28,
        "state_name": "ANDHRA PRADESH",
        "lat": 83.2185,
        "long": 17.6868,
        "types_of_c": "Leafless Ghostplant",
        "farm sizea": 78,
        "area of cr": 44
      },
      "geometry": { "type": "Point", "coordinates": [83.2185, 17.6868] }
    },
    {
      "type": "Feature",
      "properties": {
        "name_of_ci": "Vizianagaram",
        "state_code": 28,
        "state_name": "ANDHRA PRADESH",
        "lat": 83.3955506,
        "long": 18.1066576,
        "types_of_c": "Yellow Necklacepod",
        "farm sizea": 79,
        "area of cr": 38
      },
      "geometry": { "type": "Point", "coordinates": [83.3955506, 18.1066576] }
    },
    {
      "type": "Feature",
      "properties": {
        "name_of_ci": "Warangal",
        "state_code": 28,
        "state_name": "ANDHRA PRADESH",
        "lat": 79.5940544,
        "long": 17.9689008,
        "types_of_c": "Cliff Desertdandelion",
        "farm sizea": 85,
        "area of cr": 24
      },
      "geometry": { "type": "Point", "coordinates": [79.5940544, 17.9689008] }
    },
    {
      "type": "Feature",
      "properties": {
        "name_of_ci": "Dibrugarh",
        "state_code": 18,
        "state_name": "ASSAM",
        "lat": 94.9119621,
        "long": 27.4728327,
        "types_of_c": "Fig",
        "farm sizea": 69,
        "area of cr": 51
      },
      "geometry": { "type": "Point", "coordinates": [94.9119621, 27.4728327] }
    },
    {
      "type": "Feature",
      "properties": {
        "name_of_ci": "Guwahati",
        "state_code": 18,
        "state_name": "ASSAM",
        "lat": 91.7362365,
        "long": 26.1445169,
        "types_of_c": "Ironweed",
        "farm sizea": 77,
        "area of cr": 34
      },
      "geometry": { "type": "Point", "coordinates": [91.7362365, 26.1445169] }
    },
    {
      "type": "Feature",
      "properties": {
        "name_of_ci": "Nagaon",
        "state_code": 18,
        "state_name": "ASSAM",
        "lat": 92.6840426,
        "long": 26.3463713,
        "types_of_c": "Carolina Horsenettle",
        "farm sizea": 81,
        "area of cr": 18
      },
      "geometry": { "type": "Point", "coordinates": [92.6840426, 26.3463713] }
    },
    {
      "type": "Feature",
      "properties": {
        "name_of_ci": "Silchar",
        "state_code": 18,
        "state_name": "ASSAM",
        "lat": 92.7789054,
        "long": 24.8332708,
        "types_of_c": "Arctic Stitchwort",
        "farm sizea": 77,
        "area of cr": 58
      },
      "geometry": { "type": "Point", "coordinates": [92.7789054, 24.8332708] }
    },
    {
      "type": "Feature",
      "properties": {
        "name_of_ci": "Arrah",
        "state_code": 10,
        "state_name": "BIHAR",
        "lat": 84.6603307,
        "long": 25.5560443,
        "types_of_c": "Maricao Pricklyash",
        "farm sizea": 88,
        "area of cr": 54
      },
      "geometry": { "type": "Point", "coordinates": [84.6603307, 25.5560443] }
    },
    {
      "type": "Feature",
      "properties": {
        "name_of_ci": "Aurangabad",
        "state_code": 10,
        "state_name": "BIHAR",
        "lat": 84.3804888,
        "long": 24.7457189,
        "types_of_c": "Flower's Orthotrichum Moss",
        "farm sizea": 72,
        "area of cr": 31
      },
      "geometry": { "type": "Point", "coordinates": [84.3804888, 24.7457189] }
    },
    {
      "type": "Feature",
      "properties": {
        "name_of_ci": "Bagaha",
        "state_code": 10,
        "state_name": "BIHAR",
        "lat": 84.0722375,
        "long": 27.1221959,
        "types_of_c": "Humboldt's Aspicilia",
        "farm sizea": 81,
        "area of cr": 23
      },
      "geometry": { "type": "Point", "coordinates": [84.0722375, 27.1221959] }
    },
    {
      "type": "Feature",
      "properties": {
        "name_of_ci": "Begusarai",
        "state_code": 10,
        "state_name": "BIHAR",
        "lat": 86.1293792,
        "long": 25.416675,
        "types_of_c": "Wild Quinine",
        "farm sizea": 80,
        "area of cr": 57
      },
      "geometry": { "type": "Point", "coordinates": [86.1293792, 25.416675] }
    },
    {
      "type": "Feature",
      "properties": {
        "name_of_ci": "Bettiah",
        "state_code": 10,
        "state_name": "BIHAR",
        "lat": 84.5169757,
        "long": 26.8028048,
        "types_of_c": "Texas Seapurslane",
        "farm sizea": 76,
        "area of cr": 22
      },
      "geometry": { "type": "Point", "coordinates": [84.5169757, 26.8028048] }
    },
    {
      "type": "Feature",
      "properties": {
        "name_of_ci": "Bhagalpur",
        "state_code": 10,
        "state_name": "BIHAR",
        "lat": 86.9824288,
        "long": 25.3478004,
        "types_of_c": "Sand Palafox",
        "farm sizea": 70,
        "area of cr": 45
      },
      "geometry": { "type": "Point", "coordinates": [86.9824288, 25.3478004] }
    },
    {
      "type": "Feature",
      "properties": {
        "name_of_ci": "Biharsharif",
        "state_code": 10,
        "state_name": "BIHAR",
        "lat": 85.5148735,
        "long": 25.1982147,
        "types_of_c": "Northern Mountain Ash",
        "farm sizea": 72,
        "area of cr": 35
      },
      "geometry": { "type": "Point", "coordinates": [85.5148735, 25.1982147] }
    },
    {
      "type": "Feature",
      "properties": {
        "name_of_ci": "Buxar",
        "state_code": 10,
        "state_name": "BIHAR",
        "lat": 84.1435136,
        "long": 25.4987785,
        "types_of_c": "Heller's Beardtongue",
        "farm sizea": 84,
        "area of cr": 31
      },
      "geometry": { "type": "Point", "coordinates": [84.1435136, 25.4987785] }
    },
    {
      "type": "Feature",
      "properties": {
        "name_of_ci": "Chapra",
        "state_code": 10,
        "state_name": "BIHAR",
        "lat": 84.7498886,
        "long": 25.7795649,
        "types_of_c": "Struchium",
        "farm sizea": 67,
        "area of cr": 19
      },
      "geometry": { "type": "Point", "coordinates": [84.7498886, 25.7795649] }
    },
    {
      "type": "Feature",
      "properties": {
        "name_of_ci": "Darbhanga",
        "state_code": 10,
        "state_name": "BIHAR",
        "lat": 85.896004,
        "long": 26.111868,
        "types_of_c": "Sessileflower False Goldenaster",
        "farm sizea": 68,
        "area of cr": 54
      },
      "geometry": { "type": "Point", "coordinates": [85.896004, 26.111868] }
    },
    {
      "type": "Feature",
      "properties": {
        "name_of_ci": "Dehri",
        "state_code": 10,
        "state_name": "BIHAR",
        "lat": 84.1909841,
        "long": 24.9277351,
        "types_of_c": "Flower Axistree",
        "farm sizea": 86,
        "area of cr": 32
      },
      "geometry": { "type": "Point", "coordinates": [84.1909841, 24.9277351] }
    },
    {
      "type": "Feature",
      "properties": {
        "name_of_ci": "Dinapur Nizamat",
        "state_code": 10,
        "state_name": "BIHAR",
        "lat": 85.0597137,
        "long": 25.6328264,
        "types_of_c": "Pennsylvania Hawthorn",
        "farm sizea": 72,
        "area of cr": 43
      },
      "geometry": { "type": "Point", "coordinates": [85.0597137, 25.6328264] }
    },
    {
      "type": "Feature",
      "properties": {
        "name_of_ci": "Gaya",
        "state_code": 10,
        "state_name": "BIHAR",
        "lat": 84.999431,
        "long": 24.7954523,
        "types_of_c": "Smooth Pricklypoppy",
        "farm sizea": 78,
        "area of cr": 43
      },
      "geometry": { "type": "Point", "coordinates": [84.999431, 24.7954523] }
    },
    {
      "type": "Feature",
      "properties": {
        "name_of_ci": "Hajipur",
        "state_code": 10,
        "state_name": "BIHAR",
        "lat": 85.2145907,
        "long": 25.6858392,
        "types_of_c": "Wall Hawkweed",
        "farm sizea": 67,
        "area of cr": 49
      },
      "geometry": { "type": "Point", "coordinates": [85.2145907, 25.6858392] }
    },
    {
      "type": "Feature",
      "properties": {
        "name_of_ci": "Jamalpur",
        "state_code": 10,
        "state_name": "BIHAR",
        "lat": 86.4906091,
        "long": 25.312717,
        "types_of_c": "Leafy False Goldenweed",
        "farm sizea": 65,
        "area of cr": 17
      },
      "geometry": { "type": "Point", "coordinates": [86.4906091, 25.312717] }
    },
    {
      "type": "Feature",
      "properties": {
        "name_of_ci": "Jehanabad",
        "state_code": 10,
        "state_name": "BIHAR",
        "lat": 84.981754,
        "long": 25.1515827,
        "types_of_c": "Silky Lupine",
        "farm sizea": 75,
        "area of cr": 48
      },
      "geometry": { "type": "Point", "coordinates": [84.981754, 25.1515827] }
    },
    {
      "type": "Feature",
      "properties": {
        "name_of_ci": "Katihar",
        "state_code": 10,
        "state_name": "BIHAR",
        "lat": 87.5718609,
        "long": 25.552048,
        "types_of_c": "Creeping Silverback",
        "farm sizea": 66,
        "area of cr": 24
      },
      "geometry": { "type": "Point", "coordinates": [87.5718609, 25.552048] }
    },
    {
      "type": "Feature",
      "properties": {
        "name_of_ci": "Kishanganj",
        "state_code": 10,
        "state_name": "BIHAR",
        "lat": 87.9383822,
        "long": 26.0917422,
        "types_of_c": "Windyridge Cyrtandra",
        "farm sizea": 76,
        "area of cr": 10
      },
      "geometry": { "type": "Point", "coordinates": [87.9383822, 26.0917422] }
    },
    {
      "type": "Feature",
      "properties": {
        "name_of_ci": "Motihari",
        "state_code": 10,
        "state_name": "BIHAR",
        "lat": 84.9088938,
        "long": 26.6469624,
        "types_of_c": "Alpine Willow",
        "farm sizea": 68,
        "area of cr": 22
      },
      "geometry": { "type": "Point", "coordinates": [84.9088938, 26.6469624] }
    },
    {
      "type": "Feature",
      "properties": {
        "name_of_ci": "Munger",
        "state_code": 10,
        "state_name": "BIHAR",
        "lat": 86.4735251,
        "long": 25.3747561,
        "types_of_c": "Piedmont Mock Bishopweed",
        "farm sizea": 68,
        "area of cr": 20
      },
      "geometry": { "type": "Point", "coordinates": [86.4735251, 25.3747561] }
    },
    {
      "type": "Feature",
      "properties": {
        "name_of_ci": "Muzaffarpur",
        "state_code": 10,
        "state_name": "BIHAR",
        "lat": 85.3647201,
        "long": 26.1208876,
        "types_of_c": "Rue Of The Mountains",
        "farm sizea": 66,
        "area of cr": 52
      },
      "geometry": { "type": "Point", "coordinates": [85.3647201, 26.1208876] }
    },
    {
      "type": "Feature",
      "properties": {
        "name_of_ci": "Patna",
        "state_code": 10,
        "state_name": "BIHAR",
        "lat": 85.1375645,
        "long": 25.5940947,
        "types_of_c": "Threadleaf Crowfoot",
        "farm sizea": 90,
        "area of cr": 51
      },
      "geometry": { "type": "Point", "coordinates": [85.1375645, 25.5940947] }
    },
    {
      "type": "Feature",
      "properties": {
        "name_of_ci": "Purnia",
        "state_code": 10,
        "state_name": "BIHAR",
        "lat": 87.4752551,
        "long": 25.7771391,
        "types_of_c": "Fan Clubmoss",
        "farm sizea": 87,
        "area of cr": 58
      },
      "geometry": { "type": "Point", "coordinates": [87.4752551, 25.7771391] }
    },
    {
      "type": "Feature",
      "properties": {
        "name_of_ci": "Saharsa",
        "state_code": 10,
        "state_name": "BIHAR",
        "lat": 86.6006249,
        "long": 25.8834961,
        "types_of_c": "Disc Lichen",
        "farm sizea": 66,
        "area of cr": 60
      },
      "geometry": { "type": "Point", "coordinates": [86.6006249, 25.8834961] }
    },
    {
      "type": "Feature",
      "properties": {
        "name_of_ci": "Sasaram",
        "state_code": 10,
        "state_name": "BIHAR",
        "lat": 84.0314295,
        "long": 24.949036,
        "types_of_c": "Wildginger",
        "farm sizea": 65,
        "area of cr": 40
      },
      "geometry": { "type": "Point", "coordinates": [84.0314295, 24.949036] }
    },
    {
      "type": "Feature",
      "properties": {
        "name_of_ci": "Siwan",
        "state_code": 10,
        "state_name": "BIHAR",
        "lat": 84.3566593,
        "long": 26.2196205,
        "types_of_c": "Poorjoe",
        "farm sizea": 84,
        "area of cr": 22
      },
      "geometry": { "type": "Point", "coordinates": [84.3566593, 26.2196205] }
    },
    {
      "type": "Feature",
      "properties": {
        "name_of_ci": "Chandigarh",
        "state_code": 4,
        "state_name": "CHANDIGARH",
        "lat": 76.7794179,
        "long": 30.7333148,
        "types_of_c": "Palmyra Palm",
        "farm sizea": 79,
        "area of cr": 60
      },
      "geometry": { "type": "Point", "coordinates": [76.7794179, 30.7333148] }
    },
    {
      "type": "Feature",
      "properties": {
        "name_of_ci": "Ambikapur",
        "state_code": 22,
        "state_name": "CHHATTISGARH",
        "lat": 83.1817856,
        "long": 23.1354921,
        "types_of_c": "Common Woolly Sunflower",
        "farm sizea": 90,
        "area of cr": 22
      },
      "geometry": { "type": "Point", "coordinates": [83.1817856, 23.1354921] }
    },
    {
      "type": "Feature",
      "properties": {
        "name_of_ci": "Bhilai Nagar",
        "state_code": 22,
        "state_name": "CHHATTISGARH",
        "lat": 81.3509416,
        "long": 21.1938475,
        "types_of_c": "Catillaria Lichen",
        "farm sizea": 67,
        "area of cr": 56
      },
      "geometry": { "type": "Point", "coordinates": [81.3509416, 21.1938475] }
    },
    {
      "type": "Feature",
      "properties": {
        "name_of_ci": "Bilaspur",
        "state_code": 22,
        "state_name": "CHHATTISGARH",
        "lat": 82.1391412,
        "long": 22.0796251,
        "types_of_c": "Klinggraeff's Bryum Moss",
        "farm sizea": 83,
        "area of cr": 51
      },
      "geometry": { "type": "Point", "coordinates": [82.1391412, 22.0796251] }
    },
    {
      "type": "Feature",
      "properties": {
        "name_of_ci": "Durg",
        "state_code": 22,
        "state_name": "CHHATTISGARH",
        "lat": 81.2849169,
        "long": 21.1904494,
        "types_of_c": "Hippo Grass",
        "farm sizea": 85,
        "area of cr": 15
      },
      "geometry": { "type": "Point", "coordinates": [81.2849169, 21.1904494] }
    },
    {
      "type": "Feature",
      "properties": {
        "name_of_ci": "Jagdalpur",
        "state_code": 22,
        "state_name": "CHHATTISGARH",
        "lat": 82.008014,
        "long": 19.0740973,
        "types_of_c": "Tree Stonecrop",
        "farm sizea": 84,
        "area of cr": 17
      },
      "geometry": { "type": "Point", "coordinates": [82.008014, 19.0740973] }
    },
    {
      "type": "Feature",
      "properties": {
        "name_of_ci": "Korba",
        "state_code": 22,
        "state_name": "CHHATTISGARH",
        "lat": 82.7500595,
        "long": 22.3594501,
        "types_of_c": "Larch Dwarf Mistletoe",
        "farm sizea": 87,
        "area of cr": 40
      },
      "geometry": { "type": "Point", "coordinates": [82.7500595, 22.3594501] }
    },
    {
      "type": "Feature",
      "properties": {
        "name_of_ci": "Raigarh",
        "state_code": 22,
        "state_name": "CHHATTISGARH",
        "lat": 83.3949632,
        "long": 21.8974003,
        "types_of_c": "Orange Lichen",
        "farm sizea": 88,
        "area of cr": 64
      },
      "geometry": { "type": "Point", "coordinates": [83.3949632, 21.8974003] }
    },
    {
      "type": "Feature",
      "properties": {
        "name_of_ci": "Raipur",
        "state_code": 22,
        "state_name": "CHHATTISGARH",
        "lat": 81.6296413,
        "long": 21.2513844,
        "types_of_c": "Gray Saltbush",
        "farm sizea": 73,
        "area of cr": 52
      },
      "geometry": { "type": "Point", "coordinates": [81.6296413, 21.2513844] }
    },
    {
      "type": "Feature",
      "properties": {
        "name_of_ci": "Rajnandgaon",
        "state_code": 22,
        "state_name": "CHHATTISGARH",
        "lat": 81.0302222,
        "long": 21.0971034,
        "types_of_c": "San Diego Sagewort",
        "farm sizea": 85,
        "area of cr": 44
      },
      "geometry": { "type": "Point", "coordinates": [81.0302222, 21.0971034] }
    },
    {
      "type": "Feature",
      "properties": {
        "name_of_ci": "Ahmadabad",
        "state_code": 24,
        "state_name": "GUJARAT",
        "lat": 72.5713621,
        "long": 23.022505,
        "types_of_c": "Mountain Pride",
        "farm sizea": 71,
        "area of cr": 28
      },
      "geometry": { "type": "Point", "coordinates": [72.5713621, 23.022505] }
    },
    {
      "type": "Feature",
      "properties": {
        "name_of_ci": "Amreli",
        "state_code": 24,
        "state_name": "GUJARAT",
        "lat": 71.2220832,
        "long": 21.6031774,
        "types_of_c": "Kellogg Snapdragon",
        "farm sizea": 89,
        "area of cr": 36
      },
      "geometry": { "type": "Point", "coordinates": [71.2220832, 21.6031774] }
    },
    {
      "type": "Feature",
      "properties": {
        "name_of_ci": "Anand",
        "state_code": 24,
        "state_name": "GUJARAT",
        "lat": 72.928871,
        "long": 22.5645175,
        "types_of_c": "Tawny Pea",
        "farm sizea": 76,
        "area of cr": 53
      },
      "geometry": { "type": "Point", "coordinates": [72.928871, 22.5645175] }
    },
    {
      "type": "Feature",
      "properties": {
        "name_of_ci": "Bharuch",
        "state_code": 24,
        "state_name": "GUJARAT",
        "lat": 72.9958748,
        "long": 21.7051358,
        "types_of_c": "Swamp Colicwood",
        "farm sizea": 68,
        "area of cr": 26
      },
      "geometry": { "type": "Point", "coordinates": [72.9958748, 21.7051358] }
    },
    {
      "type": "Feature",
      "properties": {
        "name_of_ci": "Bhavnagar",
        "state_code": 24,
        "state_name": "GUJARAT",
        "lat": 72.1519304,
        "long": 21.7644725,
        "types_of_c": "Drummond's Campion",
        "farm sizea": 80,
        "area of cr": 54
      },
      "geometry": { "type": "Point", "coordinates": [72.1519304, 21.7644725] }
    },
    {
      "type": "Feature",
      "properties": {
        "name_of_ci": "Bhuj",
        "state_code": 24,
        "state_name": "GUJARAT",
        "lat": 69.6669324,
        "long": 23.2419997,
        "types_of_c": "California Nettle",
        "farm sizea": 83,
        "area of cr": 53
      },
      "geometry": { "type": "Point", "coordinates": [69.6669324, 23.2419997] }
    },
    {
      "type": "Feature",
      "properties": {
        "name_of_ci": "Botad",
        "state_code": 24,
        "state_name": "GUJARAT",
        "lat": 71.6684269,
        "long": 22.1704232,
        "types_of_c": "Ridged Yellow Flax",
        "farm sizea": 81,
        "area of cr": 53
      },
      "geometry": { "type": "Point", "coordinates": [71.6684269, 22.1704232] }
    },
    {
      "type": "Feature",
      "properties": {
        "name_of_ci": "Deesa",
        "state_code": 24,
        "state_name": "GUJARAT",
        "lat": 72.1906721,
        "long": 24.2585031,
        "types_of_c": "Cactus Apple",
        "farm sizea": 71,
        "area of cr": 41
      },
      "geometry": { "type": "Point", "coordinates": [72.1906721, 24.2585031] }
    },
    {
      "type": "Feature",
      "properties": {
        "name_of_ci": "Gandhidham",
        "state_code": 24,
        "state_name": "GUJARAT",
        "lat": 70.133673,
        "long": 23.075297,
        "types_of_c": "Avens",
        "farm sizea": 81,
        "area of cr": 38
      },
      "geometry": { "type": "Point", "coordinates": [70.133673, 23.075297] }
    },
    {
      "type": "Feature",
      "properties": {
        "name_of_ci": "Gandhinagar",
        "state_code": 24,
        "state_name": "GUJARAT",
        "lat": 72.6369415,
        "long": 23.2156354,
        "types_of_c": "Pasture Goatsbeard",
        "farm sizea": 71,
        "area of cr": 46
      },
      "geometry": { "type": "Point", "coordinates": [72.6369415, 23.2156354] }
    },
    {
      "type": "Feature",
      "properties": {
        "name_of_ci": "Godhra",
        "state_code": 24,
        "state_name": "GUJARAT",
        "lat": 73.6142795,
        "long": 22.7788044,
        "types_of_c": "Great Indian Plantain",
        "farm sizea": 87,
        "area of cr": 29
      },
      "geometry": { "type": "Point", "coordinates": [73.6142795, 22.7788044] }
    },
    {
      "type": "Feature",
      "properties": {
        "name_of_ci": "Gondal",
        "state_code": 24,
        "state_name": "GUJARAT",
        "lat": 70.792297,
        "long": 21.9619463,
        "types_of_c": "Alkaligrass",
        "farm sizea": 89,
        "area of cr": 36
      },
      "geometry": { "type": "Point", "coordinates": [70.792297, 21.9619463] }
    },
    {
      "type": "Feature",
      "properties": {
        "name_of_ci": "Jamnagar",
        "state_code": 24,
        "state_name": "GUJARAT",
        "lat": 70.05773,
        "long": 22.4707019,
        "types_of_c": "Tuckahoe Dewberry",
        "farm sizea": 78,
        "area of cr": 11
      },
      "geometry": { "type": "Point", "coordinates": [70.05773, 22.4707019] }
    },
    {
      "type": "Feature",
      "properties": {
        "name_of_ci": "Jetpur Navagadh",
        "state_code": 24,
        "state_name": "GUJARAT",
        "lat": 70.6276279,
        "long": 21.7615246,
        "types_of_c": "Spreading Hedgeparsley",
        "farm sizea": 81,
        "area of cr": 36
      },
      "geometry": { "type": "Point", "coordinates": [70.6276279, 21.7615246] }
    },
    {
      "type": "Feature",
      "properties": {
        "name_of_ci": "Junagadh",
        "state_code": 24,
        "state_name": "GUJARAT",
        "lat": 70.4578768,
        "long": 21.522184,
        "types_of_c": "Fewleaf Thistle",
        "farm sizea": 70,
        "area of cr": 57
      },
      "geometry": { "type": "Point", "coordinates": [70.4578768, 21.522184] }
    },
    {
      "type": "Feature",
      "properties": {
        "name_of_ci": "Kalol",
        "state_code": 24,
        "state_name": "GUJARAT",
        "lat": 72.5086513,
        "long": 23.2463895,
        "types_of_c": "Rockcress",
        "farm sizea": 81,
        "area of cr": 19
      },
      "geometry": { "type": "Point", "coordinates": [72.5086513, 23.2463895] }
    },
    {
      "type": "Feature",
      "properties": {
        "name_of_ci": "Mahesana",
        "state_code": 24,
        "state_name": "GUJARAT",
        "lat": 72.3693252,
        "long": 23.5879607,
        "types_of_c": "Flamevine",
        "farm sizea": 88,
        "area of cr": 26
      },
      "geometry": { "type": "Point", "coordinates": [72.3693252, 23.5879607] }
    },
    {
      "type": "Feature",
      "properties": {
        "name_of_ci": "Morvi",
        "state_code": 24,
        "state_name": "GUJARAT",
        "lat": 70.8236195,
        "long": 22.8119895,
        "types_of_c": "Stonecrop Gilia",
        "farm sizea": 85,
        "area of cr": 46
      },
      "geometry": { "type": "Point", "coordinates": [70.8236195, 22.8119895] }
    },
    {
      "type": "Feature",
      "properties": {
        "name_of_ci": "Nadiad",
        "state_code": 24,
        "state_name": "GUJARAT",
        "lat": 72.8633635,
        "long": 22.6915853,
        "types_of_c": "Twobristle Rockdaisy",
        "farm sizea": 82,
        "area of cr": 20
      },
      "geometry": { "type": "Point", "coordinates": [72.8633635, 22.6915853] }
    },
    {
      "type": "Feature",
      "properties": {
        "name_of_ci": "Navsari",
        "state_code": 24,
        "state_name": "GUJARAT",
        "lat": 72.9520348,
        "long": 20.9467019,
        "types_of_c": "Border Fleabane",
        "farm sizea": 67,
        "area of cr": 16
      },
      "geometry": { "type": "Point", "coordinates": [72.9520348, 20.9467019] }
    },
    {
      "type": "Feature",
      "properties": {
        "name_of_ci": "Palanpur",
        "state_code": 24,
        "state_name": "GUJARAT",
        "lat": 72.4330989,
        "long": 24.174051,
        "types_of_c": "Heath Cliffrose",
        "farm sizea": 74,
        "area of cr": 16
      },
      "geometry": { "type": "Point", "coordinates": [72.4330989, 24.174051] }
    },
    {
      "type": "Feature",
      "properties": {
        "name_of_ci": "Patan",
        "state_code": 24,
        "state_name": "GUJARAT",
        "lat": 72.1266255,
        "long": 23.8493246,
        "types_of_c": "Arrowfeather Threeawn",
        "farm sizea": 81,
        "area of cr": 49
      },
      "geometry": { "type": "Point", "coordinates": [72.1266255, 23.8493246] }
    },
    {
      "type": "Feature",
      "properties": {
        "name_of_ci": "Porbandar",
        "state_code": 24,
        "state_name": "GUJARAT",
        "lat": 69.6292654,
        "long": 21.6417069,
        "types_of_c": "Foxtail Cactus",
        "farm sizea": 70,
        "area of cr": 29
      },
      "geometry": { "type": "Point", "coordinates": [69.6292654, 21.6417069] }
    },
    {
      "type": "Feature",
      "properties": {
        "name_of_ci": "Rajkot",
        "state_code": 24,
        "state_name": "GUJARAT",
        "lat": 70.8021599,
        "long": 22.3038945,
        "types_of_c": "Creeping Woodsorrel",
        "farm sizea": 74,
        "area of cr": 56
      },
      "geometry": { "type": "Point", "coordinates": [70.8021599, 22.3038945] }
    },
    {
      "type": "Feature",
      "properties": {
        "name_of_ci": "Surat",
        "state_code": 24,
        "state_name": "GUJARAT",
        "lat": 72.8310607,
        "long": 21.1702401,
        "types_of_c": "Wedgeleaf Dock",
        "farm sizea": 79,
        "area of cr": 51
      },
      "geometry": { "type": "Point", "coordinates": [72.8310607, 21.1702401] }
    },
    {
      "type": "Feature",
      "properties": {
        "name_of_ci": "Surendranagar Dudhrej",
        "state_code": 24,
        "state_name": "GUJARAT",
        "lat": 71.649536,
        "long": 22.7201319,
        "types_of_c": "Rocky Ragwort",
        "farm sizea": 87,
        "area of cr": 65
      },
      "geometry": { "type": "Point", "coordinates": [71.649536, 22.7201319] }
    },
    {
      "type": "Feature",
      "properties": {
        "name_of_ci": "Vadodara",
        "state_code": 24,
        "state_name": "GUJARAT",
        "lat": 73.1812187,
        "long": 22.3071588,
        "types_of_c": "Rosy Gilia",
        "farm sizea": 76,
        "area of cr": 64
      },
      "geometry": { "type": "Point", "coordinates": [73.1812187, 22.3071588] }
    },
    {
      "type": "Feature",
      "properties": {
        "name_of_ci": "Valsad",
        "state_code": 24,
        "state_name": "GUJARAT",
        "lat": 72.9342451,
        "long": 20.5992349,
        "types_of_c": "Twocolor Sarcogyne Lichen",
        "farm sizea": 90,
        "area of cr": 56
      },
      "geometry": { "type": "Point", "coordinates": [72.9342451, 20.5992349] }
    },
    {
      "type": "Feature",
      "properties": {
        "name_of_ci": "Veraval",
        "state_code": 24,
        "state_name": "GUJARAT",
        "lat": 70.3628516,
        "long": 20.9158979,
        "types_of_c": "Brittlebush",
        "farm sizea": 79,
        "area of cr": 47
      },
      "geometry": { "type": "Point", "coordinates": [70.3628516, 20.9158979] }
    },
    {
      "type": "Feature",
      "properties": {
        "name_of_ci": "Ambala",
        "state_code": 6,
        "state_name": "HARYANA",
        "lat": 76.7766974,
        "long": 30.3781788,
        "types_of_c": "Harrington's Cephalotaxus",
        "farm sizea": 88,
        "area of cr": 38
      },
      "geometry": { "type": "Point", "coordinates": [76.7766974, 30.3781788] }
    },
    {
      "type": "Feature",
      "properties": {
        "name_of_ci": "Ambala Sadar",
        "state_code": 6,
        "state_name": "HARYANA",
        "lat": 76.8432663,
        "long": 30.3248708,
        "types_of_c": "Heartleaf Twistflower",
        "farm sizea": 72,
        "area of cr": 37
      },
      "geometry": { "type": "Point", "coordinates": [76.8432663, 30.3248708] }
    },
    {
      "type": "Feature",
      "properties": {
        "name_of_ci": "Bahadurgarh",
        "state_code": 6,
        "state_name": "HARYANA",
        "lat": 76.9239727,
        "long": 28.6924464,
        "types_of_c": "Lavandin",
        "farm sizea": 88,
        "area of cr": 49
      },
      "geometry": { "type": "Point", "coordinates": [76.9239727, 28.6924464] }
    },
    {
      "type": "Feature",
      "properties": {
        "name_of_ci": "Bhiwani",
        "state_code": 6,
        "state_name": "HARYANA",
        "lat": 75.9927652,
        "long": 28.7751693,
        "types_of_c": "Hairy Gumweed",
        "farm sizea": 88,
        "area of cr": 35
      },
      "geometry": { "type": "Point", "coordinates": [75.9927652, 28.7751693] }
    },
    {
      "type": "Feature",
      "properties": {
        "name_of_ci": "Faridabad",
        "state_code": 6,
        "state_name": "HARYANA",
        "lat": 77.3177894,
        "long": 28.4089123,
        "types_of_c": "Acrocordia Lichen",
        "farm sizea": 82,
        "area of cr": 38
      },
      "geometry": { "type": "Point", "coordinates": [77.3177894, 28.4089123] }
    },
    {
      "type": "Feature",
      "properties": {
        "name_of_ci": "Gurgaon",
        "state_code": 6,
        "state_name": "HARYANA",
        "lat": 77.0266383,
        "long": 28.4594965,
        "types_of_c": "Mountain Sandwort",
        "farm sizea": 84,
        "area of cr": 59
      },
      "geometry": { "type": "Point", "coordinates": [77.0266383, 28.4594965] }
    },
    {
      "type": "Feature",
      "properties": {
        "name_of_ci": "Hisar",
        "state_code": 6,
        "state_name": "HARYANA",
        "lat": 75.7216527,
        "long": 29.1491875,
        "types_of_c": "Selfing Monkeyflower",
        "farm sizea": 85,
        "area of cr": 34
      },
      "geometry": { "type": "Point", "coordinates": [75.7216527, 29.1491875] }
    },
    {
      "type": "Feature",
      "properties": {
        "name_of_ci": "Jagadhri",
        "state_code": 6,
        "state_name": "HARYANA",
        "lat": 77.2969204,
        "long": 30.1680858,
        "types_of_c": "Pinesap",
        "farm sizea": 90,
        "area of cr": 45
      },
      "geometry": { "type": "Point", "coordinates": [77.2969204, 30.1680858] }
    },
    {
      "type": "Feature",
      "properties": {
        "name_of_ci": "Jind",
        "state_code": 6,
        "state_name": "HARYANA",
        "lat": 76.3058328,
        "long": 29.3211153,
        "types_of_c": "Sleeping Combseed",
        "farm sizea": 89,
        "area of cr": 22
      },
      "geometry": { "type": "Point", "coordinates": [76.3058328, 29.3211153] }
    },
    {
      "type": "Feature",
      "properties": {
        "name_of_ci": "Kaithal",
        "state_code": 6,
        "state_name": "HARYANA",
        "lat": 76.3984537,
        "long": 29.7856734,
        "types_of_c": "Prostrate Ceanothus",
        "farm sizea": 87,
        "area of cr": 64
      },
      "geometry": { "type": "Point", "coordinates": [76.3984537, 29.7856734] }
    },
    {
      "type": "Feature",
      "properties": {
        "name_of_ci": "Karnal",
        "state_code": 6,
        "state_name": "HARYANA",
        "lat": 76.9904825,
        "long": 29.6856929,
        "types_of_c": "Pacific Blacksnakeroot",
        "farm sizea": 66,
        "area of cr": 65
      },
      "geometry": { "type": "Point", "coordinates": [76.9904825, 29.6856929] }
    },
    {
      "type": "Feature",
      "properties": {
        "name_of_ci": "Palwal",
        "state_code": 6,
        "state_name": "HARYANA",
        "lat": 77.3320262,
        "long": 28.1487362,
        "types_of_c": "Red Rodwood",
        "farm sizea": 83,
        "area of cr": 61
      },
      "geometry": { "type": "Point", "coordinates": [77.3320262, 28.1487362] }
    },
    {
      "type": "Feature",
      "properties": {
        "name_of_ci": "Panchkula",
        "state_code": 6,
        "state_name": "HARYANA",
        "lat": 76.860565,
        "long": 30.6942091,
        "types_of_c": "Berteron's Rattlebox",
        "farm sizea": 70,
        "area of cr": 62
      },
      "geometry": { "type": "Point", "coordinates": [76.860565, 30.6942091] }
    },
    {
      "type": "Feature",
      "properties": {
        "name_of_ci": "Panipat",
        "state_code": 6,
        "state_name": "HARYANA",
        "lat": 76.9635023,
        "long": 29.3909464,
        "types_of_c": "Wart Lichen",
        "farm sizea": 71,
        "area of cr": 12
      },
      "geometry": { "type": "Point", "coordinates": [76.9635023, 29.3909464] }
    },
    {
      "type": "Feature",
      "properties": {
        "name_of_ci": "Rewari",
        "state_code": 6,
        "state_name": "HARYANA",
        "lat": 76.6239423,
        "long": 28.1927631,
        "types_of_c": "Bolinas Manzanita",
        "farm sizea": 69,
        "area of cr": 39
      },
      "geometry": { "type": "Point", "coordinates": [76.6239423, 28.1927631] }
    },
    {
      "type": "Feature",
      "properties": {
        "name_of_ci": "Rohtak",
        "state_code": 6,
        "state_name": "HARYANA",
        "lat": 76.606611,
        "long": 28.8955152,
        "types_of_c": "Mojave Woolly Sunflower",
        "farm sizea": 79,
        "area of cr": 37
      },
      "geometry": { "type": "Point", "coordinates": [76.606611, 28.8955152] }
    },
    {
      "type": "Feature",
      "properties": {
        "name_of_ci": "Sirsa",
        "state_code": 6,
        "state_name": "HARYANA",
        "lat": 75.0177029,
        "long": 29.5335931,
        "types_of_c": "Orange Lichen",
        "farm sizea": 90,
        "area of cr": 64
      },
      "geometry": { "type": "Point", "coordinates": [75.0177029, 29.5335931] }
    },
    {
      "type": "Feature",
      "properties": {
        "name_of_ci": "Sonipat",
        "state_code": 6,
        "state_name": "HARYANA",
        "lat": 77.091281,
        "long": 28.9287735,
        "types_of_c": "Haya",
        "farm sizea": 85,
        "area of cr": 48
      },
      "geometry": { "type": "Point", "coordinates": [77.091281, 28.9287735] }
    },
    {
      "type": "Feature",
      "properties": {
        "name_of_ci": "Thanesar",
        "state_code": 6,
        "state_name": "HARYANA",
        "lat": 76.8197522,
        "long": 29.9696148,
        "types_of_c": "Malabar Melastome",
        "farm sizea": 86,
        "area of cr": 28
      },
      "geometry": { "type": "Point", "coordinates": [76.8197522, 29.9696148] }
    },
    {
      "type": "Feature",
      "properties": {
        "name_of_ci": "Yamunanagar",
        "state_code": 6,
        "state_name": "HARYANA",
        "lat": 77.2673901,
        "long": 30.1290485,
        "types_of_c": "Bridger Mountain Alumroot",
        "farm sizea": 81,
        "area of cr": 19
      },
      "geometry": { "type": "Point", "coordinates": [77.2673901, 30.1290485] }
    },
    {
      "type": "Feature",
      "properties": {
        "name_of_ci": "Shimla",
        "state_code": 2,
        "state_name": "HIMACHAL PRADESH",
        "lat": 77.1734033,
        "long": 31.1048145,
        "types_of_c": "Mosquito Plant",
        "farm sizea": 67,
        "area of cr": 19
      },
      "geometry": { "type": "Point", "coordinates": [77.1734033, 31.1048145] }
    },
    {
      "type": "Feature",
      "properties": {
        "name_of_ci": "Anantnag",
        "state_code": 1,
        "state_name": "JAMMU & KASHMIR",
        "lat": 75.1487007,
        "long": 33.7311255,
        "types_of_c": "Hydnocarpus",
        "farm sizea": 79,
        "area of cr": 23
      },
      "geometry": { "type": "Point", "coordinates": [75.1487007, 33.7311255] }
    },
    {
      "type": "Feature",
      "properties": {
        "name_of_ci": "Jammu",
        "state_code": 1,
        "state_name": "JAMMU & KASHMIR",
        "lat": 74.8570259,
        "long": 32.7266016,
        "types_of_c": "Zigzag Clover",
        "farm sizea": 66,
        "area of cr": 14
      },
      "geometry": { "type": "Point", "coordinates": [74.8570259, 32.7266016] }
    },
    {
      "type": "Feature",
      "properties": {
        "name_of_ci": "Srinagar",
        "state_code": 1,
        "state_name": "JAMMU & KASHMIR",
        "lat": 74.7972825,
        "long": 34.0836708,
        "types_of_c": "Mountain Monardella",
        "farm sizea": 89,
        "area of cr": 64
      },
      "geometry": { "type": "Point", "coordinates": [74.7972825, 34.0836708] }
    },
    {
      "type": "Feature",
      "properties": {
        "name_of_ci": "Adityapur",
        "state_code": 20,
        "state_name": "JHARKHAND",
        "lat": 86.1576889,
        "long": 22.7834741,
        "types_of_c": "Zulu Fescue",
        "farm sizea": 69,
        "area of cr": 27
      },
      "geometry": { "type": "Point", "coordinates": [86.1576889, 22.7834741] }
    },
    {
      "type": "Feature",
      "properties": {
        "name_of_ci": "Bokaro Steel City",
        "state_code": 20,
        "state_name": "JHARKHAND",
        "lat": 86.151112,
        "long": 23.6692956,
        "types_of_c": "White Mountain Saxifrage",
        "farm sizea": 66,
        "area of cr": 41
      },
      "geometry": { "type": "Point", "coordinates": [86.151112, 23.6692956] }
    },
    {
      "type": "Feature",
      "properties": {
        "name_of_ci": "Chas",
        "state_code": 20,
        "state_name": "JHARKHAND",
        "lat": 86.1700894,
        "long": 23.6388375,
        "types_of_c": "California Hazelnut",
        "farm sizea": 84,
        "area of cr": 28
      },
      "geometry": { "type": "Point", "coordinates": [86.1700894, 23.6388375] }
    },
    {
      "type": "Feature",
      "properties": {
        "name_of_ci": "Deoghar",
        "state_code": 20,
        "state_name": "JHARKHAND",
        "lat": 86.6913222,
        "long": 24.4763201,
        "types_of_c": "Dixie Goldenrod",
        "farm sizea": 86,
        "area of cr": 45
      },
      "geometry": { "type": "Point", "coordinates": [86.6913222, 24.4763201] }
    },
    {
      "type": "Feature",
      "properties": {
        "name_of_ci": "Dhanbad",
        "state_code": 20,
        "state_name": "JHARKHAND",
        "lat": 86.4303859,
        "long": 23.7956531,
        "types_of_c": "Sierra Woolly Indian Paintbrush",
        "farm sizea": 89,
        "area of cr": 34
      },
      "geometry": { "type": "Point", "coordinates": [86.4303859, 23.7956531] }
    },
    {
      "type": "Feature",
      "properties": {
        "name_of_ci": "Giridih",
        "state_code": 20,
        "state_name": "JHARKHAND",
        "lat": 86.0937312,
        "long": 24.2841482,
        "types_of_c": "Bolander's Pohlia Moss",
        "farm sizea": 65,
        "area of cr": 17
      },
      "geometry": { "type": "Point", "coordinates": [86.0937312, 24.2841482] }
    },
    {
      "type": "Feature",
      "properties": {
        "name_of_ci": "Hazaribag",
        "state_code": 20,
        "state_name": "JHARKHAND",
        "lat": 85.3691068,
        "long": 23.9966213,
        "types_of_c": "Vasey's Rubberweed",
        "farm sizea": 84,
        "area of cr": 13
      },
      "geometry": { "type": "Point", "coordinates": [85.3691068, 23.9966213] }
    },
    {
      "type": "Feature",
      "properties": {
        "name_of_ci": "Jamshedpur",
        "state_code": 20,
        "state_name": "JHARKHAND",
        "lat": 86.2028754,
        "long": 22.8045665,
        "types_of_c": "Bastardsage",
        "farm sizea": 90,
        "area of cr": 23
      },
      "geometry": { "type": "Point", "coordinates": [86.2028754, 22.8045665] }
    },
    {
      "type": "Feature",
      "properties": {
        "name_of_ci": "Mango",
        "state_code": 20,
        "state_name": "JHARKHAND",
        "lat": 86.219577,
        "long": 22.834024,
        "types_of_c": "Guinea Yam",
        "farm sizea": 72,
        "area of cr": 25
      },
      "geometry": { "type": "Point", "coordinates": [86.219577, 22.834024] }
    },
    {
      "type": "Feature",
      "properties": {
        "name_of_ci": "Ranchi",
        "state_code": 20,
        "state_name": "JHARKHAND",
        "lat": 85.309562,
        "long": 23.3440997,
        "types_of_c": "Bastard Gregre",
        "farm sizea": 85,
        "area of cr": 25
      },
      "geometry": { "type": "Point", "coordinates": [85.309562, 23.3440997] }
    },
    {
      "type": "Feature",
      "properties": {
        "name_of_ci": "Bagalkot",
        "state_code": 29,
        "state_name": "KARNATAKA",
        "lat": 75.6557206,
        "long": 16.1725355,
        "types_of_c": "Arthothelium Lichen",
        "farm sizea": 83,
        "area of cr": 57
      },
      "geometry": { "type": "Point", "coordinates": [75.6557206, 16.1725355] }
    },
    {
      "type": "Feature",
      "properties": {
        "name_of_ci": "Belgaum",
        "state_code": 29,
        "state_name": "KARNATAKA",
        "lat": 74.4976741,
        "long": 15.8496953,
        "types_of_c": "Roving Pricklypear",
        "farm sizea": 86,
        "area of cr": 28
      },
      "geometry": { "type": "Point", "coordinates": [74.4976741, 15.8496953] }
    },
    {
      "type": "Feature",
      "properties": {
        "name_of_ci": "Bellary",
        "state_code": 29,
        "state_name": "KARNATAKA",
        "lat": 76.9214428,
        "long": 15.1393932,
        "types_of_c": "Leathery Grapefern",
        "farm sizea": 78,
        "area of cr": 26
      },
      "geometry": { "type": "Point", "coordinates": [76.9214428, 15.1393932] }
    },
    {
      "type": "Feature",
      "properties": {
        "name_of_ci": "Bengaluru",
        "state_code": 29,
        "state_name": "KARNATAKA",
        "lat": 77.5946,
        "long": 12.9716,
        "types_of_c": "Rio Abajo Spleenwort",
        "farm sizea": 76,
        "area of cr": 36
      },
      "geometry": { "type": "Point", "coordinates": [77.5946, 12.9716] }
    },
    {
      "type": "Feature",
      "properties": {
        "name_of_ci": "Bhadravati",
        "state_code": 29,
        "state_name": "KARNATAKA",
        "lat": 75.7080727,
        "long": 13.8329901,
        "types_of_c": "Narrowleaf Four O'clock",
        "farm sizea": 82,
        "area of cr": 20
      },
      "geometry": { "type": "Point", "coordinates": [75.7080727, 13.8329901] }
    },
    {
      "type": "Feature",
      "properties": {
        "name_of_ci": "Bidar",
        "state_code": 29,
        "state_name": "KARNATAKA",
        "lat": 77.5046101,
        "long": 17.9148799,
        "types_of_c": "Wingpod Purslane",
        "farm sizea": 88,
        "area of cr": 50
      },
      "geometry": { "type": "Point", "coordinates": [77.5046101, 17.9148799] }
    },
    {
      "type": "Feature",
      "properties": {
        "name_of_ci": "Bijapur",
        "state_code": 29,
        "state_name": "KARNATAKA",
        "lat": 75.710031,
        "long": 16.8301708,
        "types_of_c": "Orange Honeysuckle",
        "farm sizea": 90,
        "area of cr": 61
      },
      "geometry": { "type": "Point", "coordinates": [75.710031, 16.8301708] }
    },
    {
      "type": "Feature",
      "properties": {
        "name_of_ci": "Chikmagalur",
        "state_code": 29,
        "state_name": "KARNATAKA",
        "lat": 75.7754018,
        "long": 13.315258,
        "types_of_c": "Lacebark",
        "farm sizea": 81,
        "area of cr": 18
      },
      "geometry": { "type": "Point", "coordinates": [75.7754018, 13.315258] }
    },
    {
      "type": "Feature",
      "properties": {
        "name_of_ci": "Chitradurga",
        "state_code": 29,
        "state_name": "KARNATAKA",
        "lat": 76.3984537,
        "long": 14.2305594,
        "types_of_c": "Perfumed Spiderlily",
        "farm sizea": 67,
        "area of cr": 26
      },
      "geometry": { "type": "Point", "coordinates": [76.3984537, 14.2305594] }
    },
    {
      "type": "Feature",
      "properties": {
        "name_of_ci": "Davanagere",
        "state_code": 29,
        "state_name": "KARNATAKA",
        "lat": 75.9238397,
        "long": 14.4663438,
        "types_of_c": "Hawai'i False Ohelo",
        "farm sizea": 72,
        "area of cr": 17
      },
      "geometry": { "type": "Point", "coordinates": [75.9238397, 14.4663438] }
    },
    {
      "type": "Feature",
      "properties": {
        "name_of_ci": "Gadag-Betigeri",
        "state_code": 29,
        "state_name": "KARNATAKA",
        "lat": 75.6380337,
        "long": 15.4324651,
        "types_of_c": "Streambank Flowering Fern",
        "farm sizea": 70,
        "area of cr": 57
      },
      "geometry": { "type": "Point", "coordinates": [75.6380337, 15.4324651] }
    },
    {
      "type": "Feature",
      "properties": {
        "name_of_ci": "Gangawati",
        "state_code": 29,
        "state_name": "KARNATAKA",
        "lat": 76.5314817,
        "long": 15.431874,
        "types_of_c": "Oriental Mangrove",
        "farm sizea": 75,
        "area of cr": 42
      },
      "geometry": { "type": "Point", "coordinates": [76.5314817, 15.431874] }
    },
    {
      "type": "Feature",
      "properties": {
        "name_of_ci": "Gulbarga",
        "state_code": 29,
        "state_name": "KARNATAKA",
        "lat": 76.8342957,
        "long": 17.329731,
        "types_of_c": "Darkthroat Shootingstar",
        "farm sizea": 89,
        "area of cr": 61
      },
      "geometry": { "type": "Point", "coordinates": [76.8342957, 17.329731] }
    },
    {
      "type": "Feature",
      "properties": {
        "name_of_ci": "Hassan",
        "state_code": 29,
        "state_name": "KARNATAKA",
        "lat": 76.0995519,
        "long": 13.0068142,
        "types_of_c": "Stinging Serpent",
        "farm sizea": 80,
        "area of cr": 45
      },
      "geometry": { "type": "Point", "coordinates": [76.0995519, 13.0068142] }
    },
    {
      "type": "Feature",
      "properties": {
        "name_of_ci": "Hospet",
        "state_code": 29,
        "state_name": "KARNATAKA",
        "lat": 76.3909241,
        "long": 15.2688542,
        "types_of_c": "Red Mountain Stonecrop",
        "farm sizea": 89,
        "area of cr": 17
      },
      "geometry": { "type": "Point", "coordinates": [76.3909241, 15.2688542] }
    },
    {
      "type": "Feature",
      "properties": {
        "name_of_ci": "Hubli-Dharwad",
        "state_code": 29,
        "state_name": "KARNATAKA",
        "lat": 75.1239547,
        "long": 15.3647083,
        "types_of_c": "Wedgeleaf Draba",
        "farm sizea": 82,
        "area of cr": 65
      },
      "geometry": { "type": "Point", "coordinates": [75.1239547, 15.3647083] }
    },
    {
      "type": "Feature",
      "properties": {
        "name_of_ci": "Kolar",
        "state_code": 29,
        "state_name": "KARNATAKA",
        "lat": 78.1325611,
        "long": 13.1357446,
        "types_of_c": "Moab Milkvetch",
        "farm sizea": 84,
        "area of cr": 24
      },
      "geometry": { "type": "Point", "coordinates": [78.1325611, 13.1357446] }
    },
    {
      "type": "Feature",
      "properties": {
        "name_of_ci": "Mandya",
        "state_code": 29,
        "state_name": "KARNATAKA",
        "lat": 76.9009191,
        "long": 12.5221567,
        "types_of_c": "Tracy's Silkgrass",
        "farm sizea": 66,
        "area of cr": 39
      },
      "geometry": { "type": "Point", "coordinates": [76.9009191, 12.5221567] }
    },
    {
      "type": "Feature",
      "properties": {
        "name_of_ci": "Mangalore",
        "state_code": 29,
        "state_name": "KARNATAKA",
        "lat": 74.8559568,
        "long": 12.9141417,
        "types_of_c": "Whitewoolly Buckwheat",
        "farm sizea": 88,
        "area of cr": 17
      },
      "geometry": { "type": "Point", "coordinates": [74.8559568, 12.9141417] }
    },
    {
      "type": "Feature",
      "properties": {
        "name_of_ci": "Mysore",
        "state_code": 29,
        "state_name": "KARNATAKA",
        "lat": 76.6393805,
        "long": 12.2958104,
        "types_of_c": "Syrian Cephalaria",
        "farm sizea": 88,
        "area of cr": 22
      },
      "geometry": { "type": "Point", "coordinates": [76.6393805, 12.2958104] }
    },
    {
      "type": "Feature",
      "properties": {
        "name_of_ci": "Raichur",
        "state_code": 29,
        "state_name": "KARNATAKA",
        "lat": 77.3439283,
        "long": 16.2120031,
        "types_of_c": "Rim Lichen",
        "farm sizea": 76,
        "area of cr": 64
      },
      "geometry": { "type": "Point", "coordinates": [77.3439283, 16.2120031] }
    },
    {
      "type": "Feature",
      "properties": {
        "name_of_ci": "Ranibennur",
        "state_code": 29,
        "state_name": "KARNATAKA",
        "lat": 75.6382657,
        "long": 14.6113428,
        "types_of_c": "Sweetpotato",
        "farm sizea": 72,
        "area of cr": 59
      },
      "geometry": { "type": "Point", "coordinates": [75.6382657, 14.6113428] }
    },
    {
      "type": "Feature",
      "properties": {
        "name_of_ci": "Robertson Pet",
        "state_code": 29,
        "state_name": "KARNATAKA",
        "lat": 78.2698622,
        "long": 12.9551189,
        "types_of_c": "Lyall's Rockcress",
        "farm sizea": 71,
        "area of cr": 26
      },
      "geometry": { "type": "Point", "coordinates": [78.2698622, 12.9551189] }
    },
    {
      "type": "Feature",
      "properties": {
        "name_of_ci": "Shimoga",
        "state_code": 29,
        "state_name": "KARNATAKA",
        "lat": 75.568101,
        "long": 13.9299299,
        "types_of_c": "Melaspilea Lichen",
        "farm sizea": 74,
        "area of cr": 55
      },
      "geometry": { "type": "Point", "coordinates": [75.568101, 13.9299299] }
    },
    {
      "type": "Feature",
      "properties": {
        "name_of_ci": "Tumkur",
        "state_code": 29,
        "state_name": "KARNATAKA",
        "lat": 76.6412712,
        "long": 13.3709627,
        "types_of_c": "Camphorweed",
        "farm sizea": 78,
        "area of cr": 12
      },
      "geometry": { "type": "Point", "coordinates": [76.6412712, 13.3709627] }
    },
    {
      "type": "Feature",
      "properties": {
        "name_of_ci": "Udupi",
        "state_code": 29,
        "state_name": "KARNATAKA",
        "lat": 74.7421427,
        "long": 13.3408807,
        "types_of_c": "Threeleaflet Dewberry",
        "farm sizea": 89,
        "area of cr": 37
      },
      "geometry": { "type": "Point", "coordinates": [74.7421427, 13.3408807] }
    },
    {
      "type": "Feature",
      "properties": {
        "name_of_ci": "Alappuzha",
        "state_code": 32,
        "state_name": "KERALA",
        "lat": 76.3388484,
        "long": 9.4980667,
        "types_of_c": "Shale Barren Evening Primrose",
        "farm sizea": 73,
        "area of cr": 25
      },
      "geometry": { "type": "Point", "coordinates": [76.3388484, 9.4980667] }
    },
    {
      "type": "Feature",
      "properties": {
        "name_of_ci": "Kochi",
        "state_code": 32,
        "state_name": "KERALA",
        "lat": 76.2673041,
        "long": 9.9312328,
        "types_of_c": "Menzies' Larkspur",
        "farm sizea": 87,
        "area of cr": 65
      },
      "geometry": { "type": "Point", "coordinates": [76.2673041, 9.9312328] }
    },
    {
      "type": "Feature",
      "properties": {
        "name_of_ci": "Kollam",
        "state_code": 32,
        "state_name": "KERALA",
        "lat": 76.6141396,
        "long": 8.8932118,
        "types_of_c": "Tundra Alkaligrass",
        "farm sizea": 85,
        "area of cr": 22
      },
      "geometry": { "type": "Point", "coordinates": [76.6141396, 8.8932118] }
    },
    {
      "type": "Feature",
      "properties": {
        "name_of_ci": "Kozhikode",
        "state_code": 32,
        "state_name": "KERALA",
        "lat": 75.78041,
        "long": 11.2587531,
        "types_of_c": "Chinese Haw",
        "farm sizea": 80,
        "area of cr": 28
      },
      "geometry": { "type": "Point", "coordinates": [75.78041, 11.2587531] }
    },
    {
      "type": "Feature",
      "properties": {
        "name_of_ci": "Palakkad",
        "state_code": 32,
        "state_name": "KERALA",
        "lat": 76.6547932,
        "long": 10.7867303,
        "types_of_c": "Mceldowney's Cyanea",
        "farm sizea": 78,
        "area of cr": 49
      },
      "geometry": { "type": "Point", "coordinates": [76.6547932, 10.7867303] }
    },
    {
      "type": "Feature",
      "properties": {
        "name_of_ci": "Thiruvananthapuram",
        "state_code": 32,
        "state_name": "KERALA",
        "lat": 76.9366376,
        "long": 8.5241391,
        "types_of_c": "Twistedstalk",
        "farm sizea": 73,
        "area of cr": 37
      },
      "geometry": { "type": "Point", "coordinates": [76.9366376, 8.5241391] }
    },
    {
      "type": "Feature",
      "properties": {
        "name_of_ci": "Thrissur",
        "state_code": 32,
        "state_name": "KERALA",
        "lat": 76.2144349,
        "long": 10.5276416,
        "types_of_c": "Frosted Lichen",
        "farm sizea": 87,
        "area of cr": 14
      },
      "geometry": { "type": "Point", "coordinates": [76.2144349, 10.5276416] }
    },
    {
      "type": "Feature",
      "properties": {
        "name_of_ci": "Betul",
        "state_code": 23,
        "state_name": "MADHYA PRADESH",
        "lat": 77.9011842,
        "long": 21.9108031,
        "types_of_c": "Snow Arnica",
        "farm sizea": 67,
        "area of cr": 59
      },
      "geometry": { "type": "Point", "coordinates": [77.9011842, 21.9108031] }
    },
    {
      "type": "Feature",
      "properties": {
        "name_of_ci": "Bhind",
        "state_code": 23,
        "state_name": "MADHYA PRADESH",
        "lat": 78.7476208,
        "long": 26.4450034,
        "types_of_c": "Narrowleaf Lespedeza",
        "farm sizea": 88,
        "area of cr": 41
      },
      "geometry": { "type": "Point", "coordinates": [78.7476208, 26.4450034] }
    },
    {
      "type": "Feature",
      "properties": {
        "name_of_ci": "Bhopal",
        "state_code": 23,
        "state_name": "MADHYA PRADESH",
        "lat": 77.412615,
        "long": 23.2599333,
        "types_of_c": "Chesapeake Blackberry",
        "farm sizea": 68,
        "area of cr": 15
      },
      "geometry": { "type": "Point", "coordinates": [77.412615, 23.2599333] }
    },
    {
      "type": "Feature",
      "properties": {
        "name_of_ci": "Burhanpur",
        "state_code": 23,
        "state_name": "MADHYA PRADESH",
        "lat": 76.2224273,
        "long": 21.3193875,
        "types_of_c": "Berlandier's Fiddlewood",
        "farm sizea": 90,
        "area of cr": 47
      },
      "geometry": { "type": "Point", "coordinates": [76.2224273, 21.3193875] }
    },
    {
      "type": "Feature",
      "properties": {
        "name_of_ci": "Chhattarpur",
        "state_code": 23,
        "state_name": "MADHYA PRADESH",
        "lat": 79.560344,
        "long": 24.728683,
        "types_of_c": "Manyflower Saxifrage",
        "farm sizea": 88,
        "area of cr": 33
      },
      "geometry": { "type": "Point", "coordinates": [79.560344, 24.728683] }
    },
    {
      "type": "Feature",
      "properties": {
        "name_of_ci": "Chhindwara",
        "state_code": 23,
        "state_name": "MADHYA PRADESH",
        "lat": 78.9381729,
        "long": 22.057437,
        "types_of_c": "Arctic Rush",
        "farm sizea": 78,
        "area of cr": 62
      },
      "geometry": { "type": "Point", "coordinates": [78.9381729, 22.057437] }
    },
    {
      "type": "Feature",
      "properties": {
        "name_of_ci": "Damoh",
        "state_code": 23,
        "state_name": "MADHYA PRADESH",
        "lat": 79.4421731,
        "long": 23.8380986,
        "types_of_c": "Mielichhofer's Copper Moss",
        "farm sizea": 80,
        "area of cr": 35
      },
      "geometry": { "type": "Point", "coordinates": [79.4421731, 23.8380986] }
    },
    {
      "type": "Feature",
      "properties": {
        "name_of_ci": "Datia",
        "state_code": 23,
        "state_name": "MADHYA PRADESH",
        "lat": 78.4609393,
        "long": 25.6653262,
        "types_of_c": "Sudetic Lousewort",
        "farm sizea": 67,
        "area of cr": 38
      },
      "geometry": { "type": "Point", "coordinates": [78.4609393, 25.6653262] }
    },
    {
      "type": "Feature",
      "properties": {
        "name_of_ci": "Dewas",
        "state_code": 23,
        "state_name": "MADHYA PRADESH",
        "lat": 76.0507949,
        "long": 22.9622672,
        "types_of_c": "Tusilla",
        "farm sizea": 74,
        "area of cr": 57
      },
      "geometry": { "type": "Point", "coordinates": [76.0507949, 22.9622672] }
    },
    {
      "type": "Feature",
      "properties": {
        "name_of_ci": "Guna",
        "state_code": 23,
        "state_name": "MADHYA PRADESH",
        "lat": 77.2979782,
        "long": 24.6348197,
        "types_of_c": "Smooth Phacelia",
        "farm sizea": 66,
        "area of cr": 23
      },
      "geometry": { "type": "Point", "coordinates": [77.2979782, 24.6348197] }
    },
    {
      "type": "Feature",
      "properties": {
        "name_of_ci": "Gwalior",
        "state_code": 23,
        "state_name": "MADHYA PRADESH",
        "lat": 78.1828308,
        "long": 26.2182871,
        "types_of_c": "Ring Lichen",
        "farm sizea": 68,
        "area of cr": 19
      },
      "geometry": { "type": "Point", "coordinates": [78.1828308, 26.2182871] }
    },
    {
      "type": "Feature",
      "properties": {
        "name_of_ci": "Hoshangabad",
        "state_code": 23,
        "state_name": "MADHYA PRADESH",
        "lat": 77.736967,
        "long": 22.744108,
        "types_of_c": "Scarlet Cinquefoil",
        "farm sizea": 65,
        "area of cr": 47
      },
      "geometry": { "type": "Point", "coordinates": [77.736967, 22.744108] }
    },
    {
      "type": "Feature",
      "properties": {
        "name_of_ci": "Indore",
        "state_code": 23,
        "state_name": "MADHYA PRADESH",
        "lat": 75.8577258,
        "long": 22.7195687,
        "types_of_c": "Twolobe Larkspur",
        "farm sizea": 79,
        "area of cr": 43
      },
      "geometry": { "type": "Point", "coordinates": [75.8577258, 22.7195687] }
    },
    {
      "type": "Feature",
      "properties": {
        "name_of_ci": "Jabalpur",
        "state_code": 23,
        "state_name": "MADHYA PRADESH",
        "lat": 79.9864071,
        "long": 23.181467,
        "types_of_c": "American Elm",
        "farm sizea": 66,
        "area of cr": 35
      },
      "geometry": { "type": "Point", "coordinates": [79.9864071, 23.181467] }
    },
    {
      "type": "Feature",
      "properties": {
        "name_of_ci": "Khandwa",
        "state_code": 23,
        "state_name": "MADHYA PRADESH",
        "lat": 76.352571,
        "long": 21.8257334,
        "types_of_c": "Featherleaf Kittentails",
        "farm sizea": 75,
        "area of cr": 12
      },
      "geometry": { "type": "Point", "coordinates": [76.352571, 21.8257334] }
    },
    {
      "type": "Feature",
      "properties": {
        "name_of_ci": "Khargone",
        "state_code": 23,
        "state_name": "MADHYA PRADESH",
        "lat": 75.8069082,
        "long": 21.90287,
        "types_of_c": "Ceanothus",
        "farm sizea": 82,
        "area of cr": 29
      },
      "geometry": { "type": "Point", "coordinates": [75.8069082, 21.90287] }
    },
    {
      "type": "Feature",
      "properties": {
        "name_of_ci": "Mandsaur",
        "state_code": 23,
        "state_name": "MADHYA PRADESH",
        "lat": 75.0692952,
        "long": 24.076836,
        "types_of_c": "Stolon Draba",
        "farm sizea": 67,
        "area of cr": 25
      },
      "geometry": { "type": "Point", "coordinates": [75.0692952, 24.076836] }
    },
    {
      "type": "Feature",
      "properties": {
        "name_of_ci": "Morena",
        "state_code": 23,
        "state_name": "MADHYA PRADESH",
        "lat": 77.9909949,
        "long": 26.4933562,
        "types_of_c": "Spotted Beebalm",
        "farm sizea": 90,
        "area of cr": 58
      },
      "geometry": { "type": "Point", "coordinates": [77.9909949, 26.4933562] }
    },
    {
      "type": "Feature",
      "properties": {
        "name_of_ci": "Murwara",
        "state_code": 23,
        "state_name": "MADHYA PRADESH",
        "lat": 80.365865,
        "long": 23.7473807,
        "types_of_c": "Seaside Kirschsteiniothelia Lichen",
        "farm sizea": 72,
        "area of cr": 65
      },
      "geometry": { "type": "Point", "coordinates": [80.365865, 23.7473807] }
    },
    {
      "type": "Feature",
      "properties": {
        "name_of_ci": "Nagda",
        "state_code": 23,
        "state_name": "MADHYA PRADESH",
        "lat": 75.4169918,
        "long": 23.4454599,
        "types_of_c": "Smooth Solomon's Seal",
        "farm sizea": 78,
        "area of cr": 52
      },
      "geometry": { "type": "Point", "coordinates": [75.4169918, 23.4454599] }
    },
    {
      "type": "Feature",
      "properties": {
        "name_of_ci": "Neemuch",
        "state_code": 23,
        "state_name": "MADHYA PRADESH",
        "lat": 74.8624092,
        "long": 24.4763852,
        "types_of_c": "Nightflowering Wild Petunia",
        "farm sizea": 69,
        "area of cr": 41
      },
      "geometry": { "type": "Point", "coordinates": [74.8624092, 24.4763852] }
    },
    {
      "type": "Feature",
      "properties": {
        "name_of_ci": "Pithampur",
        "state_code": 23,
        "state_name": "MADHYA PRADESH",
        "lat": 75.6822899,
        "long": 22.613252,
        "types_of_c": "Yellow Streamers",
        "farm sizea": 80,
        "area of cr": 10
      },
      "geometry": { "type": "Point", "coordinates": [75.6822899, 22.613252] }
    },
    {
      "type": "Feature",
      "properties": {
        "name_of_ci": "Ratlam",
        "state_code": 23,
        "state_name": "MADHYA PRADESH",
        "lat": 75.0376325,
        "long": 23.3341696,
        "types_of_c": "Florida Lacefern",
        "farm sizea": 69,
        "area of cr": 23
      },
      "geometry": { "type": "Point", "coordinates": [75.0376325, 23.3341696] }
    },
    {
      "type": "Feature",
      "properties": {
        "name_of_ci": "Rewa",
        "state_code": 23,
        "state_name": "MADHYA PRADESH",
        "lat": 81.30418,
        "long": 24.5372927,
        "types_of_c": "Forest Sandalwood",
        "farm sizea": 76,
        "area of cr": 45
      },
      "geometry": { "type": "Point", "coordinates": [81.30418, 24.5372927] }
    },
    {
      "type": "Feature",
      "properties": {
        "name_of_ci": "Sagar",
        "state_code": 23,
        "state_name": "MADHYA PRADESH",
        "lat": 78.7378068,
        "long": 23.838805,
        "types_of_c": "Alaskan Douglasia",
        "farm sizea": 70,
        "area of cr": 28
      },
      "geometry": { "type": "Point", "coordinates": [78.7378068, 23.838805] }
    },
    {
      "type": "Feature",
      "properties": {
        "name_of_ci": "Satna",
        "state_code": 23,
        "state_name": "MADHYA PRADESH",
        "lat": 80.8322428,
        "long": 24.6005075,
        "types_of_c": "Parathesis",
        "farm sizea": 89,
        "area of cr": 18
      },
      "geometry": { "type": "Point", "coordinates": [80.8322428, 24.6005075] }
    },
    {
      "type": "Feature",
      "properties": {
        "name_of_ci": "Sehore",
        "state_code": 23,
        "state_name": "MADHYA PRADESH",
        "lat": 77.0850781,
        "long": 23.205012,
        "types_of_c": "Yellow Bloodleaf",
        "farm sizea": 75,
        "area of cr": 38
      },
      "geometry": { "type": "Point", "coordinates": [77.0850781, 23.205012] }
    },
    {
      "type": "Feature",
      "properties": {
        "name_of_ci": "Seoni",
        "state_code": 23,
        "state_name": "MADHYA PRADESH",
        "lat": 79.5434841,
        "long": 22.0868691,
        "types_of_c": "Squirreltail",
        "farm sizea": 74,
        "area of cr": 62
      },
      "geometry": { "type": "Point", "coordinates": [79.5434841, 22.0868691] }
    },
    {
      "type": "Feature",
      "properties": {
        "name_of_ci": "Shivpuri",
        "state_code": 23,
        "state_name": "MADHYA PRADESH",
        "lat": 77.665066,
        "long": 25.4357869,
        "types_of_c": "Bearded Beggarticks",
        "farm sizea": 67,
        "area of cr": 34
      },
      "geometry": { "type": "Point", "coordinates": [77.665066, 25.4357869] }
    },
    {
      "type": "Feature",
      "properties": {
        "name_of_ci": "Singrauli",
        "state_code": 23,
        "state_name": "MADHYA PRADESH",
        "lat": 82.6645469,
        "long": 24.1992101,
        "types_of_c": "Lecidella Lichen",
        "farm sizea": 81,
        "area of cr": 35
      },
      "geometry": { "type": "Point", "coordinates": [82.6645469, 24.1992101] }
    },
    {
      "type": "Feature",
      "properties": {
        "name_of_ci": "Ujjain",
        "state_code": 23,
        "state_name": "MADHYA PRADESH",
        "lat": 75.7849097,
        "long": 23.1793013,
        "types_of_c": "Small's Blacksnakeroot",
        "farm sizea": 71,
        "area of cr": 59
      },
      "geometry": { "type": "Point", "coordinates": [75.7849097, 23.1793013] }
    },
    {
      "type": "Feature",
      "properties": {
        "name_of_ci": "Vidisha",
        "state_code": 23,
        "state_name": "MADHYA PRADESH",
        "lat": 77.8081363,
        "long": 23.5251102,
        "types_of_c": "Bluehead Gilia",
        "farm sizea": 89,
        "area of cr": 56
      },
      "geometry": { "type": "Point", "coordinates": [77.8081363, 23.5251102] }
    },
    {
      "type": "Feature",
      "properties": {
        "name_of_ci": "Achalpur",
        "state_code": 27,
        "state_name": "MAHARASHTRA",
        "lat": 77.5086754,
        "long": 21.257584,
        "types_of_c": "Lemmon's Needlegrass",
        "farm sizea": 90,
        "area of cr": 62
      },
      "geometry": { "type": "Point", "coordinates": [77.5086754, 21.257584] }
    },
    {
      "type": "Feature",
      "properties": {
        "name_of_ci": "Ahmadnagar",
        "state_code": 27,
        "state_name": "MAHARASHTRA",
        "lat": 74.7495916,
        "long": 19.0952075,
        "types_of_c": "Sharpleaf Cancerwort",
        "farm sizea": 76,
        "area of cr": 52
      },
      "geometry": { "type": "Point", "coordinates": [74.7495916, 19.0952075] }
    },
    {
      "type": "Feature",
      "properties": {
        "name_of_ci": "Akola",
        "state_code": 27,
        "state_name": "MAHARASHTRA",
        "lat": 77.0219019,
        "long": 20.7059345,
        "types_of_c": "Dense False Gilyflower",
        "farm sizea": 88,
        "area of cr": 29
      },
      "geometry": { "type": "Point", "coordinates": [77.0219019, 20.7059345] }
    },
    {
      "type": "Feature",
      "properties": {
        "name_of_ci": "Ambarnath",
        "state_code": 27,
        "state_name": "MAHARASHTRA",
        "lat": 73.1926023,
        "long": 19.1825167,
        "types_of_c": "Leafflower",
        "farm sizea": 72,
        "area of cr": 27
      },
      "geometry": { "type": "Point", "coordinates": [73.1926023, 19.1825167] }
    },
    {
      "type": "Feature",
      "properties": {
        "name_of_ci": "Amravati",
        "state_code": 27,
        "state_name": "MAHARASHTRA",
        "lat": 77.7795513,
        "long": 20.9374238,
        "types_of_c": "Karwinskia",
        "farm sizea": 77,
        "area of cr": 65
      },
      "geometry": { "type": "Point", "coordinates": [77.7795513, 20.9374238] }
    },
    {
      "type": "Feature",
      "properties": {
        "name_of_ci": "Aurangabad",
        "state_code": 27,
        "state_name": "MAHARASHTRA",
        "lat": 75.3433139,
        "long": 19.8761653,
        "types_of_c": "Surinam Cherry",
        "farm sizea": 88,
        "area of cr": 18
      },
      "geometry": { "type": "Point", "coordinates": [75.3433139, 19.8761653] }
    },
    {
      "type": "Feature",
      "properties": {
        "name_of_ci": "Badlapur",
        "state_code": 27,
        "state_name": "MAHARASHTRA",
        "lat": 73.2367896,
        "long": 19.1667854,
        "types_of_c": "Andreaea Moss",
        "farm sizea": 68,
        "area of cr": 29
      },
      "geometry": { "type": "Point", "coordinates": [73.2367896, 19.1667854] }
    },
    {
      "type": "Feature",
      "properties": {
        "name_of_ci": "Barshi",
        "state_code": 27,
        "state_name": "MAHARASHTRA",
        "lat": 75.6941478,
        "long": 18.2333856,
        "types_of_c": "Ground-crescent Milkvetch",
        "farm sizea": 87,
        "area of cr": 10
      },
      "geometry": { "type": "Point", "coordinates": [75.6941478, 18.2333856] }
    },
    {
      "type": "Feature",
      "properties": {
        "name_of_ci": "Bhiwandi",
        "state_code": 27,
        "state_name": "MAHARASHTRA",
        "lat": 73.0482912,
        "long": 19.2812547,
        "types_of_c": "Rough Hedgenettle",
        "farm sizea": 88,
        "area of cr": 61
      },
      "geometry": { "type": "Point", "coordinates": [73.0482912, 19.2812547] }
    },
    {
      "type": "Feature",
      "properties": {
        "name_of_ci": "Bhusawal",
        "state_code": 27,
        "state_name": "MAHARASHTRA",
        "lat": 75.8010962,
        "long": 21.0455204,
        "types_of_c": "Iberian Spirea",
        "farm sizea": 71,
        "area of cr": 19
      },
      "geometry": { "type": "Point", "coordinates": [75.8010962, 21.0455204] }
    },
    {
      "type": "Feature",
      "properties": {
        "name_of_ci": "Bid",
        "state_code": 27,
        "state_name": "MAHARASHTRA",
        "lat": 75.7600785,
        "long": 18.9890893,
        "types_of_c": "Common Twinpod",
        "farm sizea": 72,
        "area of cr": 27
      },
      "geometry": { "type": "Point", "coordinates": [75.7600785, 18.9890893] }
    },
    {
      "type": "Feature",
      "properties": {
        "name_of_ci": "Chandrapur",
        "state_code": 27,
        "state_name": "MAHARASHTRA",
        "lat": 79.3014845,
        "long": 19.9704597,
        "types_of_c": "Lindheimer's Indigo",
        "farm sizea": 76,
        "area of cr": 35
      },
      "geometry": { "type": "Point", "coordinates": [79.3014845, 19.9704597] }
    },
    {
      "type": "Feature",
      "properties": {
        "name_of_ci": "Dhule",
        "state_code": 27,
        "state_name": "MAHARASHTRA",
        "lat": 74.7748979,
        "long": 20.9042201,
        "types_of_c": "Red Turtlehead",
        "farm sizea": 85,
        "area of cr": 43
      },
      "geometry": { "type": "Point", "coordinates": [74.7748979, 20.9042201] }
    },
    {
      "type": "Feature",
      "properties": {
        "name_of_ci": "Gondiya",
        "state_code": 27,
        "state_name": "MAHARASHTRA",
        "lat": 80.2209773,
        "long": 21.4624491,
        "types_of_c": "Littleseed Canarygrass",
        "farm sizea": 87,
        "area of cr": 60
      },
      "geometry": { "type": "Point", "coordinates": [80.2209773, 21.4624491] }
    },
    {
      "type": "Feature",
      "properties": {
        "name_of_ci": "Greater Mumbai",
        "state_code": 27,
        "state_name": "MAHARASHTRA",
        "lat": 72.8777,
        "long": 19.076,
        "types_of_c": "Tubercle Twistedstalk",
        "farm sizea": 89,
        "area of cr": 19
      },
      "geometry": { "type": "Point", "coordinates": [72.8777, 19.076] }
    },
    {
      "type": "Feature",
      "properties": {
        "name_of_ci": "Hinganghat",
        "state_code": 27,
        "state_name": "MAHARASHTRA",
        "lat": 78.8411405,
        "long": 20.5505728,
        "types_of_c": "Manycolored Lupine",
        "farm sizea": 86,
        "area of cr": 36
      },
      "geometry": { "type": "Point", "coordinates": [78.8411405, 20.5505728] }
    },
    {
      "type": "Feature",
      "properties": {
        "name_of_ci": "Ichalkaranji",
        "state_code": 27,
        "state_name": "MAHARASHTRA",
        "lat": 74.4560807,
        "long": 16.7090008,
        "types_of_c": "Hairy Sunflower",
        "farm sizea": 66,
        "area of cr": 62
      },
      "geometry": { "type": "Point", "coordinates": [74.4560807, 16.7090008] }
    },
    {
      "type": "Feature",
      "properties": {
        "name_of_ci": "Jalgaon",
        "state_code": 27,
        "state_name": "MAHARASHTRA",
        "lat": 75.5626039,
        "long": 21.0076578,
        "types_of_c": "Licania",
        "farm sizea": 68,
        "area of cr": 64
      },
      "geometry": { "type": "Point", "coordinates": [75.5626039, 21.0076578] }
    },
    {
      "type": "Feature",
      "properties": {
        "name_of_ci": "Jalna",
        "state_code": 27,
        "state_name": "MAHARASHTRA",
        "lat": 75.8800305,
        "long": 19.8296893,
        "types_of_c": "Muhly",
        "farm sizea": 75,
        "area of cr": 24
      },
      "geometry": { "type": "Point", "coordinates": [75.8800305, 19.8296893] }
    },
    {
      "type": "Feature",
      "properties": {
        "name_of_ci": "Kolhapur",
        "state_code": 27,
        "state_name": "MAHARASHTRA",
        "lat": 74.2432527,
        "long": 16.7049873,
        "types_of_c": "Rosewood",
        "farm sizea": 68,
        "area of cr": 34
      },
      "geometry": { "type": "Point", "coordinates": [74.2432527, 16.7049873] }
    },
    {
      "type": "Feature",
      "properties": {
        "name_of_ci": "Latur",
        "state_code": 27,
        "state_name": "MAHARASHTRA",
        "lat": 76.5603828,
        "long": 18.4087934,
        "types_of_c": "Hybrid Ladyslipper",
        "farm sizea": 78,
        "area of cr": 51
      },
      "geometry": { "type": "Point", "coordinates": [76.5603828, 18.4087934] }
    },
    {
      "type": "Feature",
      "properties": {
        "name_of_ci": "Malegaon",
        "state_code": 27,
        "state_name": "MAHARASHTRA",
        "lat": 74.5100291,
        "long": 20.5547497,
        "types_of_c": "Potato",
        "quantity": "150kg",
        "farm sizea": 80,
        "area of cr": 59
      },
      "geometry": { "type": "Point", "coordinates": [74.5100291, 20.5547497] }
    },
    {
      "type": "Feature",
      "properties": {
        "name_of_ci": "Mira Bhayander",
        "state_code": 27,
        "state_name": "MAHARASHTRA",
        "lat": 72.8543897,
        "long": 19.2952325,
        "types_of_c": "Ocala Blackberry",
        "farm sizea": 88,
        "area of cr": 22
      },
      "geometry": { "type": "Point", "coordinates": [72.8543897, 19.2952325] }
    },
    {
      "type": "Feature",
      "properties": {
        "name_of_ci": "Nagpur",
        "state_code": 27,
        "state_name": "MAHARASHTRA",
        "lat": 79.0881546,
        "long": 21.1458004,
        "types_of_c": "Sweetvetch",
        "farm sizea": 68,
        "area of cr": 18
      },
      "geometry": { "type": "Point", "coordinates": [79.0881546, 21.1458004] }
    },
    {
      "type": "Feature",
      "properties": {
        "name_of_ci": "Nanded Waghala",
        "state_code": 27,
        "state_name": "MAHARASHTRA",
        "lat": 77.303723,
        "long": 19.1428869,
        "types_of_c": "Hybrid Sedge",
        "farm sizea": 66,
        "area of cr": 40
      },
      "geometry": { "type": "Point", "coordinates": [77.303723, 19.1428869] }
    },
    {
      "type": "Feature",
      "properties": {
        "name_of_ci": "Nandurbar",
        "state_code": 27,
        "state_name": "MAHARASHTRA",
        "lat": 74.123996,
        "long": 21.7468548,
        "types_of_c": "Fahkahatchee Bluethread",
        "farm sizea": 75,
        "area of cr": 41
      },
      "geometry": { "type": "Point", "coordinates": [74.123996, 21.7468548] }
    },
    {
      "type": "Feature",
      "properties": {
        "name_of_ci": "Nashik",
        "state_code": 27,
        "state_name": "MAHARASHTRA",
        "lat": 73.7898023,
        "long": 19.9974533,
        "types_of_c": "Snakewood",
        "farm sizea": 84,
        "area of cr": 28
      },
      "geometry": { "type": "Point", "coordinates": [73.7898023, 19.9974533] }
    },
    {
      "type": "Feature",
      "properties": {
        "name_of_ci": "Navi Mumbai",
        "state_code": 27,
        "state_name": "MAHARASHTRA",
        "lat": 73.0296625,
        "long": 19.0330488,
        "types_of_c": "Stroganowia",
        "farm sizea": 67,
        "area of cr": 35
      },
      "geometry": { "type": "Point", "coordinates": [73.0296625, 19.0330488] }
    },
    {
      "type": "Feature",
      "properties": {
        "name_of_ci": "Navi Mumbai Panvel Raigarh",
        "state_code": 27,
        "state_name": "MAHARASHTRA",
        "lat": 73.1175162,
        "long": 18.9894007,
        "types_of_c": "Bristly Jewelflower",
        "farm sizea": 89,
        "area of cr": 51
      },
      "geometry": { "type": "Point", "coordinates": [73.1175162, 18.9894007] }
    },
    {
      "type": "Feature",
      "properties": {
        "name_of_ci": "Osmanabad",
        "state_code": 27,
        "state_name": "MAHARASHTRA",
        "lat": 76.1783739,
        "long": 18.2069636,
        "types_of_c": "Brunswickgrass",
        "farm sizea": 78,
        "area of cr": 33
      },
      "geometry": { "type": "Point", "coordinates": [76.1783739, 18.2069636] }
    },
    {
      "type": "Feature",
      "properties": {
        "name_of_ci": "Panvel",
        "state_code": 27,
        "state_name": "MAHARASHTRA",
        "lat": 73.1175162,
        "long": 18.9894007,
        "types_of_c": "Siskiyou Mountain Ragwort",
        "farm sizea": 78,
        "area of cr": 28
      },
      "geometry": { "type": "Point", "coordinates": [73.1175162, 18.9894007] }
    },
    {
      "type": "Feature",
      "properties": {
        "name_of_ci": "Parbhani",
        "state_code": 27,
        "state_name": "MAHARASHTRA",
        "lat": 76.776665,
        "long": 19.2609958,
        "types_of_c": "Blue Lupine",
        "farm sizea": 79,
        "area of cr": 40
      },
      "geometry": { "type": "Point", "coordinates": [76.776665, 19.2609958] }
    },
    {
      "type": "Feature",
      "properties": {
        "name_of_ci": "Pimpri Chinchwad",
        "state_code": 27,
        "state_name": "MAHARASHTRA",
        "lat": 73.7997094,
        "long": 18.6297811,
        "types_of_c": "Single Threeawn",
        "farm sizea": 79,
        "area of cr": 14
      },
      "geometry": { "type": "Point", "coordinates": [73.7997094, 18.6297811] }
    },
    {
      "type": "Feature",
      "properties": {
        "name_of_ci": "Pune",
        "state_code": 27,
        "state_name": "MAHARASHTRA",
        "lat": 73.8567437,
        "long": 18.5204303,
        "types_of_c": "Silky Thatching Grass",
        "farm sizea": 83,
        "area of cr": 19
      },
      "geometry": { "type": "Point", "coordinates": [73.8567437, 18.5204303] }
    },
    {
      "type": "Feature",
      "properties": {
        "name_of_ci": "Sangli Miraj Kupwad",
        "state_code": 27,
        "state_name": "MAHARASHTRA",
        "lat": 74.6049061,
        "long": 16.8541887,
        "types_of_c": "Bejuco De Alambre",
        "farm sizea": 79,
        "area of cr": 54
      },
      "geometry": { "type": "Point", "coordinates": [74.6049061, 16.8541887] }
    },
    {
      "type": "Feature",
      "properties": {
        "name_of_ci": "Satara",
        "state_code": 27,
        "state_name": "MAHARASHTRA",
        "lat": 74.018261,
        "long": 17.6804639,
        "types_of_c": "Trumpet",
        "farm sizea": 87,
        "area of cr": 31
      },
      "geometry": { "type": "Point", "coordinates": [74.018261, 17.6804639] }
    },
    {
      "type": "Feature",
      "properties": {
        "name_of_ci": "Solapur",
        "state_code": 27,
        "state_name": "MAHARASHTRA",
        "lat": 75.9063906,
        "long": 17.6599188,
        "types_of_c": "Longleaf False Goldeneye",
        "farm sizea": 79,
        "area of cr": 24
      },
      "geometry": { "type": "Point", "coordinates": [75.9063906, 17.6599188] }
    },
    {
      "type": "Feature",
      "properties": {
        "name_of_ci": "Thane",
        "state_code": 27,
        "state_name": "MAHARASHTRA",
        "lat": 72.9780897,
        "long": 19.2183307,
        "types_of_c": "Rinodina Lichen",
        "farm sizea": 89,
        "area of cr": 56
      },
      "geometry": { "type": "Point", "coordinates": [72.9780897, 19.2183307] }
    },
    {
      "type": "Feature",
      "properties": {
        "name_of_ci": "Udgir",
        "state_code": 27,
        "state_name": "MAHARASHTRA",
        "lat": 77.1126009,
        "long": 18.3942882,
        "types_of_c": "Ponderosa Violet",
        "farm sizea": 86,
        "area of cr": 49
      },
      "geometry": { "type": "Point", "coordinates": [77.1126009, 18.3942882] }
    },
    {
      "type": "Feature",
      "properties": {
        "name_of_ci": "Ulhasnagar",
        "state_code": 27,
        "state_name": "MAHARASHTRA",
        "lat": 73.1644628,
        "long": 19.2215115,
        "types_of_c": "Haitian Catalpa",
        "farm sizea": 76,
        "area of cr": 58
      },
      "geometry": { "type": "Point", "coordinates": [73.1644628, 19.2215115] }
    },
    {
      "type": "Feature",
      "properties": {
        "name_of_ci": "Vasai Virar City",
        "state_code": 27,
        "state_name": "MAHARASHTRA",
        "lat": 72.8397317,
        "long": 19.3919275,
        "types_of_c": "Cancer-root",
        "farm sizea": 90,
        "area of cr": 11
      },
      "geometry": { "type": "Point", "coordinates": [72.8397317, 19.3919275] }
    },
    {
      "type": "Feature",
      "properties": {
        "name_of_ci": "Wardha",
        "state_code": 27,
        "state_name": "MAHARASHTRA",
        "lat": 78.6021946,
        "long": 20.745319,
        "types_of_c": "Branched Porterweed",
        "farm sizea": 79,
        "area of cr": 59
      },
      "geometry": { "type": "Point", "coordinates": [78.6021946, 20.745319] }
    },
    {
      "type": "Feature",
      "properties": {
        "name_of_ci": "Yavatmal",
        "state_code": 27,
        "state_name": "MAHARASHTRA",
        "lat": 78.1204073,
        "long": 20.3887937,
        "types_of_c": "Two-leaf Vetch",
        "farm sizea": 80,
        "area of cr": 26
      },
      "geometry": { "type": "Point", "coordinates": [78.1204073, 20.3887937] }
    },
    {
      "type": "Feature",
      "properties": {
        "name_of_ci": "Imphal",
        "state_code": 14,
        "state_name": "MANIPUR",
        "lat": 93.9368439,
        "long": 24.8170111,
        "types_of_c": "Puerto Rico Jumby Pepper",
        "farm sizea": 87,
        "area of cr": 38
      },